[
  {
    "property_id": "P0001",
    "location": "Miami",
    "property_type": "cottage",
    "price_per_night": 167,
    "features": [
      "air_conditioning",
      "dishwasher",
      "hot_tub",
      "kayaks",
      "ocean_view",
      "parking",
      "wifi"
    ],
    "tags": [
      "beachfront",
      "family_friendly",
      "new_listing",
      "secluded"
    ],
    "coordinates": {
      "lat": 25.7617,
      "lng": -80.1918
    },
    "bedrooms": 3
  },
  {
    "property_id": "P0002",
    "location": "San Diego",
    "property_type": "townhouse",
    "price_per_night": 220,
    "features": [
      "air_conditioning",
      "kayaks",
      "ocean_view",
      "pool",
      "smart_tv",
      "washer_dryer",
      "wifi",
      "workspace"
    ],
    "tags": [
      "beachfront",
      "eco_friendly",
      "hiking",
      "romantic"
    ],
    "coordinates": {
      "lat": 32.7157,
      "lng": -117.1611
    },
    "bedrooms": 3
  },
  {
    "property_id": "P0003",
    "location": "Portland",
    "property_type": "condo",
    "price_per_night": 136,
    "features": [
      "bikes",
      "washer_dryer",
      "wifi",
      "parking"
    ],
    "tags": [
      "family_friendly",
      "hiking",
      "nightlife",
      "superhost"
    ],
    "coordinates": {
      "lat": 45.5152,
      "lng": -122.6784
    },
    "bedrooms": 1
  },
  {
    "property_id": "P0004",
    "location": "Park City",
    "property_type": "apartment",
    "price_per_night": 323,
    "features": [
      "bbq_grill",
      "bikes",
      "fireplace",
      "gym",
      "hot_tub",
      "mountain_view",
      "wifi",
      "workspace"
    ],
    "tags": [
      "family_friendly",
      "hiking",
      "long_stay",
      "nightlife",
      "ski_in_out"
    ],
    "coordinates": {
      "lat": 40.6461,
      "lng": -111.498
    },
    "bedrooms": 3
  },
  {
    "property_id": "P0005",
    "location": "Queenstown",
    "property_type": "apartment",
    "price_per_night": 201,
    "features": [
      "bbq_grill",
      "ev_charger",
      "fireplace",
      "gym",
      "kayaks",
      "washer_dryer",
      "wheelchair_accessible",
      "wifi",
      "workspace"
    ],
    "tags": [
      "lakeside",
      "new_listing",
      "nightlife"
    ],
    "coordinates": {
      "lat": -45.0312,
      "lng": 168.6626
    },
    "bedrooms": 1
  },
  {
    "property_id": "P0006",
    "location": "Prague",
    "property_type": "house",
    "price_per_night": 141,
    "features": [
      "air_conditioning",
      "bbq_grill",
      "bikes",
      "game_room",
      "parking",
      "pool",
      "washer_dryer",
      "wifi"
    ],
    "tags": [
      "eco_friendly"
    ],
    "coordinates": {
      "lat": 50.0755,
      "lng": 14.4378
    },
    "bedrooms": 4
  },
  {
    "property_id": "P0007",
    "location": "Blue Mountains",
    "property_type": "chalet",
    "price_per_night": 236,
    "features": [
      "bikes",
      "fireplace",
      "hot_tub",
      "lake_view",
      "mountain_view",
      "smart_tv",
      "wifi"
    ],
    "tags": [
      "family_friendly",
      "hiking",
      "lakeside",
      "ski_in_out"
    ],
    "coordinates": {
      "lat": 44.5465,
      "lng": -80.382
    },
    "bedrooms": 3
  },
  {
    "property_id": "P0008",
    "location": "Sedona",
    "property_type": "apartment",
    "price_per_night": 218,
    "features": [
      "bikes",
      "dishwasher",
      "fireplace",
      "gym",
      "mountain_view",
      "pool",
      "smart_tv",
      "wheelchair_accessible",
      "wifi"
    ],
    "tags": [
      "family_friendly",
      "hiking",
      "long_stay",
      "nightlife"
    ],
    "coordinates": {
      "lat": 34.8697,
      "lng": -111.7609
    },
    "bedrooms": 1
  },
  {
    "property_id": "P0009",
    "location": "Quebec City",
    "property_type": "house",
    "price_per_night": 236,
    "features": [
      "bbq_grill",
      "ev_charger",
      "game_room",
      "washer_dryer",
      "wifi"
    ],
    "tags": [
      "luxury",
      "superhost"
    ],
    "coordinates": {
      "lat": 46.8139,
      "lng": -71.208
    },
    "bedrooms": 3
  },
  {
    "property_id": "P0010",
    "location": "Toronto",
    "property_type": "condo",
    "price_per_night": 146,
    "features": [
      "air_conditioning",
      "ev_charger",
      "gym",
      "lake_view",
      "smart_tv",
      "washer_dryer",
      "wifi",
      "workspace"
    ],
    "tags": [
      "beachfront",
      "city_center",
      "family_friendly",
      "hiking",
      "lakeside"
    ],
    "coordinates": {
      "lat": 43.6532,
      "lng": -79.3832
    },
    "bedrooms": 2
  },
  {
    "property_id": "P0011",
    "location": "Charlottetown",
    "property_type": "apartment",
    "price_per_night": 175,
    "features": [
      "ev_charger",
      "pool",
      "sauna",
      "smart_tv",
      "washer_dryer",
      "wifi"
    ],
    "tags": [
      "city_center",
      "eco_friendly",
      "luxury",
      "nightlife"
    ],
    "coordinates": {
      "lat": 46.2382,
      "lng": -63.1311
    },
    "bedrooms": 3
  },
  {
    "property_id": "P0012",
    "location": "Kauai",
    "property_type": "cabin",
    "price_per_night": 352,
    "features": [
      "air_conditioning",
      "ev_charger",
      "gym",
      "kayaks",
      "ocean_view",
      "sauna",
      "wifi"
    ],
    "tags": [
      "beachfront",
      "nightlife"
    ],
    "coordinates": {
      "lat": 22.0964,
      "lng": -159.5261
    },
    "bedrooms": 2
  },
  {
    "property_id": "P0013",
    "location": "Toronto",
    "property_type": "condo",
    "price_per_night": 172,
    "features": [
      "air_conditioning",
      "dishwasher",
      "ev_charger",
      "lake_view",
      "pet_friendly",
      "sauna",
      "washer_dryer",
      "wifi"
    ],
    "tags": [
      "city_center",
      "eco_friendly",
      "long_stay",
      "new_listing",
      "superhost"
    ],
    "coordinates": {
      "lat": 43.6532,
      "lng": -79.3832
    },
    "bedrooms": 3
  },
  {
    "property_id": "P0014",
    "location": "Melbourne",
    "property_type": "bungalow",
    "price_per_night": 177,
    "features": [
      "air_conditioning",
      "bbq_grill",
      "kayaks",
      "ocean_view",
      "parking",
      "pool",
      "wifi",
      "workspace"
    ],
    "tags": [
      "beachfront",
      "nightlife"
    ],
    "coordinates": {
      "lat": -37.8136,
      "lng": 144.9631
    },
    "bedrooms": 2
  },
  {
    "property_id": "P0015",
    "location": "Kelowna",
    "property_type": "apartment",
    "price_per_night": 184,
    "features": [
      "bikes",
      "lake_view",
      "parking",
      "smart_tv",
      "wifi"
    ],
    "tags": [
      "city_center",
      "lakeside",
      "nightlife"
    ],
    "coordinates": {
      "lat": 49.8879,
      "lng": -119.496
    },
    "bedrooms": 3
  },
  {
    "property_id": "P0016",
    "location": "Calgary",
    "property_type": "chalet",
    "price_per_night": 191,
    "features": [
      "bbq_grill",
      "bikes",
      "fireplace",
      "gym",
      "smart_tv",
      "wifi"
    ],
    "tags": [
      "romantic"
    ],
    "coordinates": {
      "lat": 51.0447,
      "lng": -114.0719
    },
    "bedrooms": 5
  },
  {
    "property_id": "P0017",
    "location": "Phoenix",
    "property_type": "condo",
    "price_per_night": 217,
    "features": [
      "air_conditioning",
      "game_room",
      "gym",
      "kayaks",
      "sauna",
      "wheelchair_accessible",
      "wifi",
      "workspace"
    ],
    "tags": [
      "nightlife"
    ],
    "coordinates": {
      "lat": 33.4484,
      "lng": -112.074
    },
    "bedrooms": 1
  },
  {
    "property_id": "P0018",
    "location": "Auckland",
    "property_type": "yurt",
    "price_per_night": 204,
    "features": [
      "air_conditioning",
      "bbq_grill",
      "ocean_view",
      "sauna",
      "wifi",
      "workspace"
    ],
    "tags": [
      "beachfront",
      "eco_friendly",
      "secluded",
      "superhost"
    ],
    "coordinates": {
      "lat": -36.8485,
      "lng": 174.7633
    },
    "bedrooms": 1
  },
  {
    "property_id": "P0019",
    "location": "Cancun",
    "property_type": "yurt",
    "price_per_night": 206,
    "features": [
      "air_conditioning",
      "bikes",
      "ev_charger",
      "hot_tub",
      "ocean_view",
      "pet_friendly",
      "wifi"
    ],
    "tags": [
      "beachfront",
      "eco_friendly",
      "luxury",
      "new_listing",
      "secluded"
    ],
    "coordinates": {
      "lat": 21.1619,
      "lng": -86.8515
    },
    "bedrooms": 1
  },
  {
    "property_id": "P0020",
    "location": "Boulder",
    "property_type": "townhouse",
    "price_per_night": 190,
    "features": [
      "air_conditioning",
      "dishwasher",
      "fireplace",
      "mountain_view",
      "parking",
      "pool",
      "washer_dryer",
      "wifi"
    ],
    "tags": [
      "nightlife",
      "secluded",
      "superhost"
    ],
    "coordinates": {
      "lat": 40.01499,
      "lng": -105.2705
    },
    "bedrooms": 3
  },
  {
    "property_id": "P0021",
    "location": "Charlottetown",
    "property_type": "townhouse",
    "price_per_night": 122,
    "features": [
      "bbq_grill",
      "hot_tub",
      "parking",
      "wifi",
      "workspace"
    ],
    "tags": [
      "family_friendly"
    ],
    "coordinates": {
      "lat": 46.2382,
      "lng": -63.1311
    },
    "bedrooms": 3
  },
  {
    "property_id": "P0022",
    "location": "Miami",
    "property_type": "yurt",
    "price_per_night": 209,
    "features": [
      "air_conditioning",
      "bikes",
      "hot_tub",
      "ocean_view",
      "parking",
      "pet_friendly",
      "wifi"
    ],
    "tags": [
      "beachfront",
      "budget",
      "eco_friendly",
      "hiking",
      "new_listing"
    ],
    "coordinates": {
      "lat": 25.7617,
      "lng": -80.1918
    },
    "bedrooms": 1
  },
  {
    "property_id": "P0023",
    "location": "Denver",
    "property_type": "townhouse",
    "price_per_night": 198,
    "features": [
      "bbq_grill",
      "bikes",
      "dishwasher",
      "fireplace",
      "gym",
      "mountain_view",
      "pet_friendly",
      "pool",
      "wifi"
    ],
    "tags": [
      "family_friendly"
    ],
    "coordinates": {
      "lat": 39.7392,
      "lng": -104.9903
    },
    "bedrooms": 2
  },
  {
    "property_id": "P0024",
    "location": "Istanbul",
    "property_type": "bungalow",
    "price_per_night": 133,
    "features": [
      "dishwasher",
      "game_room",
      "kayaks",
      "ocean_view",
      "parking",
      "sauna",
      "wheelchair_accessible",
      "wifi"
    ],
    "tags": [
      "beachfront",
      "budget",
      "city_center",
      "superhost"
    ],
    "coordinates": {
      "lat": 41.0082,
      "lng": 28.9784
    },
    "bedrooms": 3
  },
  {
    "property_id": "P0025",
    "location": "Charlottetown",
    "property_type": "bungalow",
    "price_per_night": 229,
    "features": [
      "air_conditioning",
      "bikes",
      "parking",
      "smart_tv",
      "wifi"
    ],
    "tags": [
      "secluded"
    ],
    "coordinates": {
      "lat": 46.2382,
      "lng": -63.1311
    },
    "bedrooms": 2
  },
  {
    "property_id": "P0026",
    "location": "Winnipeg",
    "property_type": "chalet",
    "price_per_night": 161,
    "features": [
      "dishwasher",
      "fireplace",
      "pool",
      "wheelchair_accessible",
      "wifi",
      "workspace"
    ],
    "tags": [
      "hiking"
    ],
    "coordinates": {
      "lat": 49.8951,
      "lng": -97.1384
    },
    "bedrooms": 4
  },
  {
    "property_id": "P0027",
    "location": "Thunder Bay",
    "property_type": "villa",
    "price_per_night": 252,
    "features": [
      "bbq_grill",
      "bikes",
      "hot_tub",
      "kayaks",
      "lake_view",
      "pet_friendly",
      "smart_tv",
      "washer_dryer",
      "wifi"
    ],
    "tags": [
      "lakeside",
      "luxury"
    ],
    "coordinates": {
      "lat": 48.3809,
      "lng": -89.2477
    },
    "bedrooms": 3
  },
  {
    "property_id": "P0028",
    "location": "San Francisco",
    "property_type": "chalet",
    "price_per_night": 374,
    "features": [
      "bikes",
      "dishwasher",
      "ocean_view",
      "washer_dryer",
      "wifi"
    ],
    "tags": [
      "beachfront",
      "hiking",
      "nightlife",
      "secluded"
    ],
    "coordinates": {
      "lat": 37.7749,
      "lng": -122.4194
    },
    "bedrooms": 2
  },
  {
    "property_id": "P0029",
    "location": "San Francisco",
    "property_type": "villa",
    "price_per_night": 344,
    "features": [
      "bbq_grill",
      "dishwasher",
      "fireplace",
      "ocean_view",
      "smart_tv",
      "washer_dryer",
      "wifi"
    ],
    "tags": [
      "beachfront",
      "family_friendly",
      "new_listing",
      "superhost"
    ],
    "coordinates": {
      "lat": 37.7749,
      "lng": -122.4194
    },
    "bedrooms": 6
  },
  {
    "property_id": "P0030",
    "location": "Havana",
    "property_type": "townhouse",
    "price_per_night": 245,
    "features": [
      "air_conditioning",
      "dishwasher",
      "ocean_view",
      "washer_dryer",
      "wifi"
    ],
    "tags": [
      "beachfront",
      "secluded",
      "superhost"
    ],
    "coordinates": {
      "lat": 23.1136,
      "lng": -82.3666
    },
    "bedrooms": 3
  },
  {
    "property_id": "P0031",
    "location": "Blue Mountains",
    "property_type": "cottage",
    "price_per_night": 198,
    "features": [
      "bbq_grill",
      "ev_charger",
      "fireplace",
      "hot_tub",
      "lake_view",
      "mountain_view",
      "sauna",
      "wifi"
    ],
    "tags": [
      "hiking",
      "lakeside",
      "nightlife",
      "ski_in_out",
      "superhost"
    ],
    "coordinates": {
      "lat": 44.5465,
      "lng": -80.382
    },
    "bedrooms": 3
  },
  {
    "property_id": "P0032",
    "location": "Athens",
    "property_type": "chalet",
    "price_per_night": 250,
    "features": [
      "air_conditioning",
      "dishwasher",
      "fireplace",
      "ocean_view",
      "sauna",
      "smart_tv",
      "wheelchair_accessible",
      "wifi"
    ],
    "tags": [
      "beachfront",
      "eco_friendly",
      "romantic",
      "secluded",
      "superhost"
    ],
    "coordinates": {
      "lat": 37.9838,
      "lng": 23.7275
    },
    "bedrooms": 2
  },
  {
    "property_id": "P0033",
    "location": "Edmonton",
    "property_type": "bungalow",
    "price_per_night": 190,
    "features": [
      "bbq_grill",
      "ev_charger",
      "kayaks",
      "pet_friendly",
      "wifi",
      "workspace"
    ],
    "tags": [
      "family_friendly"
    ],
    "coordinates": {
      "lat": 53.5461,
      "lng": -113.4938
    },
    "bedrooms": 3
  },
  {
    "property_id": "P0034",
    "location": "Banff",
    "property_type": "apartment",
    "price_per_night": 114,
    "features": [
      "air_conditioning",
      "fireplace",
      "game_room",
      "hot_tub",
      "mountain_view",
      "parking",
      "smart_tv",
      "washer_dryer",
      "wifi"
    ],
    "tags": [
      "hiking",
      "nightlife",
      "ski_in_out",
      "superhost"
    ],
    "coordinates": {
      "lat": 51.1784,
      "lng": -115.5708
    },
    "bedrooms": 3
  },
  {
    "property_id": "P0035",
    "location": "Austin",
    "property_type": "cabin",
    "price_per_night": 181,
    "features": [
      "air_conditioning",
      "dishwasher",
      "hot_tub",
      "parking",
      "wifi"
    ],
    "tags": [
      "hiking"
    ],
    "coordinates": {
      "lat": 30.2672,
      "lng": -97.7431
    },
    "bedrooms": 1
  },
  {
    "property_id": "P0036",
    "location": "Toronto",
    "property_type": "villa",
    "price_per_night": 313,
    "features": [
      "bbq_grill",
      "dishwasher",
      "hot_tub",
      "lake_view",
      "sauna",
      "washer_dryer",
      "wifi"
    ],
    "tags": [
      "eco_friendly",
      "lakeside",
      "luxury",
      "romantic",
      "secluded"
    ],
    "coordinates": {
      "lat": 43.6532,
      "lng": -79.3832
    },
    "bedrooms": 6
  },
  {
    "property_id": "P0037",
    "location": "Boston",
    "property_type": "townhouse",
    "price_per_night": 247,
    "features": [
      "game_room",
      "ocean_view",
      "parking",
      "washer_dryer",
      "wifi"
    ],
    "tags": [
      "beachfront",
      "city_center",
      "luxury",
      "romantic"
    ],
    "coordinates": {
      "lat": 42.3601,
      "lng": -71.0589
    },
    "bedrooms": 2
  },
  {
    "property_id": "P0038",
    "location": "Ottawa",
    "property_type": "cottage",
    "price_per_night": 228,
    "features": [
      "air_conditioning",
      "bikes",
      "dishwasher",
      "ev_charger",
      "hot_tub",
      "pet_friendly",
      "smart_tv",
      "wifi"
    ],
    "tags": [
      "family_friendly"
    ],
    "coordinates": {
      "lat": 45.4215,
      "lng": -75.6972
    },
    "bedrooms": 3
  },
  {
    "property_id": "P0039",
    "location": "Chicago",
    "property_type": "apartment",
    "price_per_night": 90,
    "features": [
      "bbq_grill",
      "ev_charger",
      "game_room",
      "gym",
      "kayaks",
      "washer_dryer",
      "wifi"
    ],
    "tags": [
      "new_listing",
      "nightlife"
    ],
    "coordinates": {
      "lat": 41.8781,
      "lng": -87.6298
    },
    "bedrooms": 3
  },
  {
    "property_id": "P0040",
    "location": "Saskatoon",
    "property_type": "yurt",
    "price_per_night": 154,
    "features": [
      "bbq_grill",
      "ev_charger",
      "parking",
      "wifi"
    ],
    "tags": [
      "eco_friendly",
      "romantic",
      "secluded"
    ],
    "coordinates": {
      "lat": 52.1332,
      "lng": -106.67
    },
    "bedrooms": 1
  },
  {
    "property_id": "P0041",
    "location": "Halifax",
    "property_type": "yurt",
    "price_per_night": 163,
    "features": [
      "air_conditioning",
      "fireplace",
      "hot_tub",
      "kayaks",
      "wifi",
      "workspace"
    ],
    "tags": [
      "city_center",
      "eco_friendly",
      "secluded"
    ],
    "coordinates": {
      "lat": 44.6488,
      "lng": -63.5752
    },
    "bedrooms": 1
  },
  {
    "property_id": "P0042",
    "location": "Winnipeg",
    "property_type": "chalet",
    "price_per_night": 273,
    "features": [
      "air_conditioning",
      "gym",
      "kayaks",
      "pool",
      "wifi"
    ],
    "tags": [
      "eco_friendly",
      "family_friendly",
      "long_stay"
    ],
    "coordinates": {
      "lat": 49.8951,
      "lng": -97.1384
    },
    "bedrooms": 3
  },
  {
    "property_id": "P0043",
    "location": "Kyoto",
    "property_type": "house",
    "price_per_night": 169,
    "features": [
      "bbq_grill",
      "hot_tub",
      "pool",
      "sauna",
      "washer_dryer",
      "wifi",
      "workspace"
    ],
    "tags": [
      "superhost"
    ],
    "coordinates": {
      "lat": 35.0116,
      "lng": 135.7681
    },
    "bedrooms": 6
  },
  {
    "property_id": "P0044",
    "location": "New Orleans",
    "property_type": "townhouse",
    "price_per_night": 119,
    "features": [
      "ev_charger",
      "sauna",
      "smart_tv",
      "washer_dryer",
      "wifi"
    ],
    "tags": [
      "long_stay",
      "nightlife",
      "superhost"
    ],
    "coordinates": {
      "lat": 29.9511,
      "lng": -90.0715
    },
    "bedrooms": 2
  },
  {
    "property_id": "P0045",
    "location": "Saskatoon",
    "property_type": "apartment",
    "price_per_night": 120,
    "features": [
      "game_room",
      "gym",
      "pet_friendly",
      "wifi"
    ],
    "tags": [
      "nightlife",
      "romantic"
    ],
    "coordinates": {
      "lat": 52.1332,
      "lng": -106.67
    },
    "bedrooms": 2
  },
  {
    "property_id": "P0046",
    "location": "Blue Mountains",
    "property_type": "yurt",
    "price_per_night": 105,
    "features": [
      "ev_charger",
      "fireplace",
      "game_room",
      "hot_tub",
      "lake_view",
      "mountain_view",
      "pool",
      "sauna",
      "wifi"
    ],
    "tags": [
      "eco_friendly",
      "family_friendly",
      "secluded",
      "ski_in_out",
      "superhost"
    ],
    "coordinates": {
      "lat": 44.5465,
      "lng": -80.382
    },
    "bedrooms": 1
  },
  {
    "property_id": "P0047",
    "location": "Portland",
    "property_type": "condo",
    "price_per_night": 144,
    "features": [
      "air_conditioning",
      "pool",
      "smart_tv",
      "washer_dryer",
      "wifi"
    ],
    "tags": [
      "long_stay",
      "nightlife"
    ],
    "coordinates": {
      "lat": 45.5152,
      "lng": -122.6784
    },
    "bedrooms": 1
  },
  {
    "property_id": "P0048",
    "location": "Austin",
    "property_type": "chalet",
    "price_per_night": 248,
    "features": [
      "air_conditioning",
      "dishwasher",
      "fireplace",
      "gym",
      "kayaks",
      "parking",
      "wifi",
      "workspace"
    ],
    "tags": [
      "luxury"
    ],
    "coordinates": {
      "lat": 30.2672,
      "lng": -97.7431
    },
    "bedrooms": 3
  },
  {
    "property_id": "P0049",
    "location": "Phoenix",
    "property_type": "cottage",
    "price_per_night": 217,
    "features": [
      "air_conditioning",
      "dishwasher",
      "fireplace",
      "washer_dryer",
      "wheelchair_accessible",
      "wifi"
    ],
    "tags": [
      "long_stay",
      "new_listing",
      "romantic",
      "secluded"
    ],
    "coordinates": {
      "lat": 33.4484,
      "lng": -112.074
    },
    "bedrooms": 4
  },
  {
    "property_id": "P0050",
    "location": "Park City",
    "property_type": "cabin",
    "price_per_night": 360,
    "features": [
      "bikes",
      "fireplace",
      "hot_tub",
      "mountain_view",
      "pet_friendly",
      "smart_tv",
      "wifi"
    ],
    "tags": [
      "budget",
      "eco_friendly",
      "hiking",
      "new_listing",
      "ski_in_out"
    ],
    "coordinates": {
      "lat": 40.6461,
      "lng": -111.498
    },
    "bedrooms": 2
  },
  {
    "property_id": "P0051",
    "location": "Kelowna",
    "property_type": "townhouse",
    "price_per_night": 124,
    "features": [
      "dishwasher",
      "kayaks",
      "lake_view",
      "pet_friendly",
      "smart_tv",
      "wifi"
    ],
    "tags": [
      "city_center",
      "eco_friendly",
      "family_friendly",
      "lakeside"
    ],
    "coordinates": {
      "lat": 49.8879,
      "lng": -119.496
    },
    "bedrooms": 4
  },
  {
    "property_id": "P0052",
    "location": "Paris",
    "property_type": "cabin",
    "price_per_night": 259,
    "features": [
      "air_conditioning",
      "bbq_grill",
      "dishwasher",
      "hot_tub",
      "kayaks",
      "parking",
      "washer_dryer",
      "wheelchair_accessible",
      "wifi"
    ],
    "tags": [
      "luxury",
      "superhost"
    ],
    "coordinates": {
      "lat": 48.8566,
      "lng": 2.3522
    },
    "bedrooms": 1
  },
  {
    "property_id": "P0053",
    "location": "Sedona",
    "property_type": "chalet",
    "price_per_night": 176,
    "features": [
      "dishwasher",
      "fireplace",
      "mountain_view",
      "sauna",
      "wifi"
    ],
    "tags": [
      "eco_friendly",
      "long_stay"
    ],
    "coordinates": {
      "lat": 34.8697,
      "lng": -111.7609
    },
    "bedrooms": 3
  },
  {
    "property_id": "P0054",
    "location": "Istanbul",
    "property_type": "yurt",
    "price_per_night": 157,
    "features": [
      "bbq_grill",
      "ocean_view",
      "pool",
      "washer_dryer",
      "wifi"
    ],
    "tags": [
      "beachfront",
      "eco_friendly",
      "new_listing",
      "secluded"
    ],
    "coordinates": {
      "lat": 41.0082,
      "lng": 28.9784
    },
    "bedrooms": 1
  },
  {
    "property_id": "P0055",
    "location": "Vancouver",
    "property_type": "yurt",
    "price_per_night": 226,
    "features": [
      "game_room",
      "hot_tub",
      "ocean_view",
      "pet_friendly",
      "wheelchair_accessible",
      "wifi",
      "workspace"
    ],
    "tags": [
      "beachfront",
      "city_center",
      "eco_friendly",
      "long_stay",
      "secluded"
    ],
    "coordinates": {
      "lat": 49.2827,
      "lng": -123.1207
    },
    "bedrooms": 1
  },
  {
    "property_id": "P0056",
    "location": "Edmonton",
    "property_type": "townhouse",
    "price_per_night": 177,
    "features": [
      "bikes",
      "dishwasher",
      "ev_charger",
      "fireplace",
      "game_room",
      "parking",
      "pool",
      "wifi"
    ],
    "tags": [
      "budget"
    ],
    "coordinates": {
      "lat": 53.5461,
      "lng": -113.4938
    },
    "bedrooms": 2
  },
  {
    "property_id": "P0057",
    "location": "Quebec City",
    "property_type": "bungalow",
    "price_per_night": 195,
    "features": [
      "air_conditioning",
      "game_room",
      "hot_tub",
      "pool",
      "smart_tv",
      "wifi"
    ],
    "tags": [
      "luxury",
      "nightlife"
    ],
    "coordinates": {
      "lat": 46.8139,
      "lng": -71.208
    },
    "bedrooms": 2
  },
  {
    "property_id": "P0058",
    "location": "Melbourne",
    "property_type": "condo",
    "price_per_night": 224,
    "features": [
      "air_conditioning",
      "bbq_grill",
      "gym",
      "kayaks",
      "ocean_view",
      "parking",
      "washer_dryer",
      "wheelchair_accessible",
      "wifi"
    ],
    "tags": [
      "beachfront",
      "hiking",
      "luxury",
      "nightlife"
    ],
    "coordinates": {
      "lat": -37.8136,
      "lng": 144.9631
    },
    "bedrooms": 2
  },
  {
    "property_id": "P0059",
    "location": "Montreal",
    "property_type": "villa",
    "price_per_night": 236,
    "features": [
      "air_conditioning",
      "bbq_grill",
      "dishwasher",
      "game_room",
      "gym",
      "sauna",
      "washer_dryer",
      "wifi",
      "workspace"
    ],
    "tags": [
      "luxury",
      "superhost"
    ],
    "coordinates": {
      "lat": 45.5019,
      "lng": -73.5674
    },
    "bedrooms": 6
  },
  {
    "property_id": "P0060",
    "location": "Denver",
    "property_type": "house",
    "price_per_night": 213,
    "features": [
      "bbq_grill",
      "fireplace",
      "gym",
      "mountain_view",
      "pool",
      "sauna",
      "washer_dryer",
      "wifi",
      "workspace"
    ],
    "tags": [
      "luxury",
      "nightlife"
    ],
    "coordinates": {
      "lat": 39.7392,
      "lng": -104.9903
    },
    "bedrooms": 3
  },
  {
    "property_id": "P0061",
    "location": "Cape Town",
    "property_type": "bungalow",
    "price_per_night": 157,
    "features": [
      "air_conditioning",
      "ocean_view",
      "washer_dryer",
      "wheelchair_accessible",
      "wifi"
    ],
    "tags": [
      "beachfront",
      "family_friendly",
      "luxury"
    ],
    "coordinates": {
      "lat": -33.9249,
      "lng": 18.4241
    },
    "bedrooms": 3
  },
  {
    "property_id": "P0062",
    "location": "New Orleans",
    "property_type": "condo",
    "price_per_night": 183,
    "features": [
      "dishwasher",
      "ev_charger",
      "hot_tub",
      "kayaks",
      "pet_friendly",
      "wifi"
    ],
    "tags": [
      "city_center",
      "eco_friendly",
      "long_stay",
      "nightlife"
    ],
    "coordinates": {
      "lat": 29.9511,
      "lng": -90.0715
    },
    "bedrooms": 3
  },
  {
    "property_id": "P0063",
    "location": "Charlottetown",
    "property_type": "apartment",
    "price_per_night": 211,
    "features": [
      "bikes",
      "dishwasher",
      "hot_tub",
      "parking",
      "pet_friendly",
      "pool",
      "sauna",
      "wifi"
    ],
    "tags": [
      "family_friendly",
      "luxury",
      "nightlife"
    ],
    "coordinates": {
      "lat": 46.2382,
      "lng": -63.1311
    },
    "bedrooms": 1
  },
  {
    "property_id": "P0064",
    "location": "Buenos Aires",
    "property_type": "house",
    "price_per_night": 188,
    "features": [
      "bbq_grill",
      "ev_charger",
      "game_room",
      "kayaks",
      "ocean_view",
      "smart_tv",
      "washer_dryer",
      "wifi"
    ],
    "tags": [
      "beachfront",
      "family_friendly",
      "long_stay"
    ],
    "coordinates": {
      "lat": -34.6037,
      "lng": -58.3816
    },
    "bedrooms": 4
  },
  {
    "property_id": "P0065",
    "location": "Charlottetown",
    "property_type": "apartment",
    "price_per_night": 122,
    "features": [
      "air_conditioning",
      "bbq_grill",
      "gym",
      "washer_dryer",
      "wheelchair_accessible",
      "wifi",
      "workspace"
    ],
    "tags": [
      "long_stay",
      "nightlife"
    ],
    "coordinates": {
      "lat": 46.2382,
      "lng": -63.1311
    },
    "bedrooms": 2
  },
  {
    "property_id": "P0066",
    "location": "Victoria",
    "property_type": "house",
    "price_per_night": 209,
    "features": [
      "bbq_grill",
      "hot_tub",
      "ocean_view",
      "parking",
      "washer_dryer",
      "wheelchair_accessible",
      "wifi"
    ],
    "tags": [
      "beachfront",
      "nightlife",
      "romantic"
    ],
    "coordinates": {
      "lat": 48.4284,
      "lng": -123.3656
    },
    "bedrooms": 3
  },
  {
    "property_id": "P0067",
    "location": "Victoria",
    "property_type": "villa",
    "price_per_night": 245,
    "features": [
      "bbq_grill",
      "ev_charger",
      "hot_tub",
      "ocean_view",
      "pool",
      "washer_dryer",
      "wifi"
    ],
    "tags": [
      "beachfront",
      "new_listing",
      "romantic"
    ],
    "coordinates": {
      "lat": 48.4284,
      "lng": -123.3656
    },
    "bedrooms": 6
  },
  {
    "property_id": "P0068",
    "location": "Nashville",
    "property_type": "chalet",
    "price_per_night": 264,
    "features": [
      "dishwasher",
      "game_room",
      "hot_tub",
      "pet_friendly",
      "washer_dryer",
      "wifi",
      "workspace"
    ],
    "tags": [
      "eco_friendly",
      "new_listing"
    ],
    "coordinates": {
      "lat": 36.1627,
      "lng": -86.7816
    },
    "bedrooms": 4
  },
  {
    "property_id": "P0069",
    "location": "Niagara-on-the-Lake",
    "property_type": "townhouse",
    "price_per_night": 121,
    "features": [
      "hot_tub",
      "lake_view",
      "pet_friendly",
      "pool",
      "wifi",
      "workspace"
    ],
    "tags": [
      "city_center",
      "family_friendly",
      "lakeside",
      "nightlife"
    ],
    "coordinates": {
      "lat": 43.255,
      "lng": -79.0716
    },
    "bedrooms": 2
  },
  {
    "property_id": "P0070",
    "location": "Athens",
    "property_type": "cottage",
    "price_per_night": 195,
    "features": [
      "dishwasher",
      "ev_charger",
      "game_room",
      "ocean_view",
      "parking",
      "sauna",
      "wheelchair_accessible",
      "wifi"
    ],
    "tags": [
      "beachfront",
      "new_listing",
      "secluded"
    ],
    "coordinates": {
      "lat": 37.9838,
      "lng": 23.7275
    },
    "bedrooms": 4
  },
  {
    "property_id": "P0071",
    "location": "Savannah",
    "property_type": "bungalow",
    "price_per_night": 156,
    "features": [
      "fireplace",
      "ocean_view",
      "parking",
      "pet_friendly",
      "pool",
      "wheelchair_accessible",
      "wifi"
    ],
    "tags": [
      "beachfront",
      "hiking",
      "luxury",
      "new_listing"
    ],
    "coordinates": {
      "lat": 32.0809,
      "lng": -81.0912
    },
    "bedrooms": 3
  },
  {
    "property_id": "P0072",
    "location": "Calgary",
    "property_type": "cottage",
    "price_per_night": 165,
    "features": [
      "air_conditioning",
      "bbq_grill",
      "game_room",
      "hot_tub",
      "parking",
      "pet_friendly",
      "sauna",
      "wifi",
      "workspace"
    ],
    "tags": [
      "secluded"
    ],
    "coordinates": {
      "lat": 51.0447,
      "lng": -114.0719
    },
    "bedrooms": 2
  },
  {
    "property_id": "P0073",
    "location": "Kyoto",
    "property_type": "chalet",
    "price_per_night": 280,
    "features": [
      "game_room",
      "pool",
      "wifi",
      "workspace"
    ],
    "tags": [
      "eco_friendly",
      "superhost"
    ],
    "coordinates": {
      "lat": 35.0116,
      "lng": 135.7681
    },
    "bedrooms": 2
  },
  {
    "property_id": "P0074",
    "location": "New Orleans",
    "property_type": "condo",
    "price_per_night": 198,
    "features": [
      "bikes",
      "ev_charger",
      "gym",
      "pet_friendly",
      "pool",
      "sauna",
      "smart_tv",
      "wifi"
    ],
    "tags": [
      "long_stay",
      "nightlife"
    ],
    "coordinates": {
      "lat": 29.9511,
      "lng": -90.0715
    },
    "bedrooms": 3
  },
  {
    "property_id": "P0075",
    "location": "Asheville",
    "property_type": "house",
    "price_per_night": 161,
    "features": [
      "bbq_grill",
      "bikes",
      "fireplace",
      "mountain_view",
      "washer_dryer",
      "wifi",
      "workspace"
    ],
    "tags": [
      "long_stay"
    ],
    "coordinates": {
      "lat": 35.5951,
      "lng": -82.5515
    },
    "bedrooms": 4
  },
  {
    "property_id": "P0076",
    "location": "Miami",
    "property_type": "villa",
    "price_per_night": 324,
    "features": [
      "air_conditioning",
      "bbq_grill",
      "ocean_view",
      "parking",
      "pool",
      "washer_dryer",
      "wifi",
      "workspace"
    ],
    "tags": [
      "beachfront",
      "family_friendly"
    ],
    "coordinates": {
      "lat": 25.7617,
      "lng": -80.1918
    },
    "bedrooms": 6
  },
  {
    "property_id": "P0077",
    "location": "Winnipeg",
    "property_type": "villa",
    "price_per_night": 190,
    "features": [
      "bbq_grill",
      "fireplace",
      "pet_friendly",
      "pool",
      "smart_tv",
      "washer_dryer",
      "wifi"
    ],
    "tags": [
      "nightlife",
      "romantic"
    ],
    "coordinates": {
      "lat": 49.8951,
      "lng": -97.1384
    },
    "bedrooms": 5
  },
  {
    "property_id": "P0078",
    "location": "Ottawa",
    "property_type": "cabin",
    "price_per_night": 200,
    "features": [
      "air_conditioning",
      "hot_tub",
      "pet_friendly",
      "pool",
      "sauna",
      "washer_dryer",
      "wifi"
    ],
    "tags": [
      "budget"
    ],
    "coordinates": {
      "lat": 45.4215,
      "lng": -75.6972
    },
    "bedrooms": 3
  },
  {
    "property_id": "P0079",
    "location": "Santorini",
    "property_type": "chalet",
    "price_per_night": 155,
    "features": [
      "fireplace",
      "ocean_view",
      "pool",
      "sauna",
      "washer_dryer",
      "wheelchair_accessible",
      "wifi",
      "workspace"
    ],
    "tags": [
      "beachfront",
      "eco_friendly"
    ],
    "coordinates": {
      "lat": 36.3932,
      "lng": 25.4615
    },
    "bedrooms": 5
  },
  {
    "property_id": "P0080",
    "location": "London",
    "property_type": "bungalow",
    "price_per_night": 339,
    "features": [
      "bikes",
      "fireplace",
      "game_room",
      "pool",
      "wifi"
    ],
    "tags": [
      "city_center",
      "hiking"
    ],
    "coordinates": {
      "lat": 51.5072,
      "lng": -0.1276
    },
    "bedrooms": 2
  },
  {
    "property_id": "P0081",
    "location": "Paris",
    "property_type": "condo",
    "price_per_night": 234,
    "features": [
      "game_room",
      "gym",
      "pool",
      "wheelchair_accessible",
      "wifi"
    ],
    "tags": [
      "city_center",
      "luxury",
      "nightlife",
      "superhost"
    ],
    "coordinates": {
      "lat": 48.8566,
      "lng": 2.3522
    },
    "bedrooms": 2
  },
  {
    "property_id": "P0082",
    "location": "Mexico City",
    "property_type": "yurt",
    "price_per_night": 190,
    "features": [
      "game_room",
      "kayaks",
      "wifi",
      "workspace"
    ],
    "tags": [
      "city_center",
      "eco_friendly",
      "family_friendly",
      "secluded"
    ],
    "coordinates": {
      "lat": 19.4326,
      "lng": -99.1332
    },
    "bedrooms": 1
  },
  {
    "property_id": "P0083",
    "location": "Istanbul",
    "property_type": "condo",
    "price_per_night": 204,
    "features": [
      "ocean_view",
      "parking",
      "pet_friendly",
      "pool",
      "smart_tv",
      "wheelchair_accessible",
      "wifi",
      "workspace"
    ],
    "tags": [
      "beachfront",
      "hiking",
      "nightlife",
      "romantic"
    ],
    "coordinates": {
      "lat": 41.0082,
      "lng": 28.9784
    },
    "bedrooms": 1
  },
  {
    "property_id": "P0084",
    "location": "Cape Town",
    "property_type": "cabin",
    "price_per_night": 146,
    "features": [
      "hot_tub",
      "ocean_view",
      "parking",
      "pet_friendly",
      "sauna",
      "wifi"
    ],
    "tags": [
      "beachfront",
      "hiking",
      "new_listing",
      "romantic"
    ],
    "coordinates": {
      "lat": -33.9249,
      "lng": 18.4241
    },
    "bedrooms": 1
  },
  {
    "property_id": "P0085",
    "location": "Phoenix",
    "property_type": "townhouse",
    "price_per_night": 200,
    "features": [
      "air_conditioning",
      "bbq_grill",
      "bikes",
      "hot_tub",
      "smart_tv",
      "wifi"
    ],
    "tags": [
      "hiking",
      "new_listing"
    ],
    "coordinates": {
      "lat": 33.4484,
      "lng": -112.074
    },
    "bedrooms": 4
  },
  {
    "property_id": "P0086",
    "location": "Kelowna",
    "property_type": "chalet",
    "price_per_night": 188,
    "features": [
      "game_room",
      "gym",
      "lake_view",
      "pool",
      "wifi"
    ],
    "tags": [
      "eco_friendly",
      "hiking",
      "lakeside"
    ],
    "coordinates": {
      "lat": 49.8879,
      "lng": -119.496
    },
    "bedrooms": 3
  },
  {
    "property_id": "P0087",
    "location": "Prague",
    "property_type": "house",
    "price_per_night": 260,
    "features": [
      "air_conditioning",
      "bbq_grill",
      "ev_charger",
      "pool",
      "washer_dryer",
      "wifi"
    ],
    "tags": [
      "budget",
      "long_stay"
    ],
    "coordinates": {
      "lat": 50.0755,
      "lng": 14.4378
    },
    "bedrooms": 6
  },
  {
    "property_id": "P0088",
    "location": "Miami",
    "property_type": "apartment",
    "price_per_night": 230,
    "features": [
      "air_conditioning",
      "gym",
      "kayaks",
      "ocean_view",
      "sauna",
      "wheelchair_accessible",
      "wifi",
      "workspace"
    ],
    "tags": [
      "beachfront",
      "eco_friendly",
      "hiking",
      "long_stay",
      "nightlife"
    ],
    "coordinates": {
      "lat": 25.7617,
      "lng": -80.1918
    },
    "bedrooms": 1
  },
  {
    "property_id": "P0089",
    "location": "Berlin",
    "property_type": "townhouse",
    "price_per_night": 135,
    "features": [
      "dishwasher",
      "game_room",
      "parking",
      "pet_friendly",
      "smart_tv",
      "wifi"
    ],
    "tags": [
      "city_center",
      "hiking",
      "secluded",
      "superhost"
    ],
    "coordinates": {
      "lat": 52.52,
      "lng": 13.405
    },
    "bedrooms": 2
  },
  {
    "property_id": "P0090",
    "location": "Amalfi",
    "property_type": "house",
    "price_per_night": 181,
    "features": [
      "air_conditioning",
      "bbq_grill",
      "dishwasher",
      "kayaks",
      "ocean_view",
      "pool",
      "washer_dryer",
      "wheelchair_accessible",
      "wifi"
    ],
    "tags": [
      "beachfront",
      "budget",
      "eco_friendly"
    ],
    "coordinates": {
      "lat": 40.6333,
      "lng": 14.602
    },
    "bedrooms": 3
  },
  {
    "property_id": "P0091",
    "location": "Istanbul",
    "property_type": "townhouse",
    "price_per_night": 139,
    "features": [
      "gym",
      "ocean_view",
      "pet_friendly",
      "wifi"
    ],
    "tags": [
      "beachfront",
      "romantic",
      "superhost"
    ],
    "coordinates": {
      "lat": 41.0082,
      "lng": 28.9784
    },
    "bedrooms": 2
  },
  {
    "property_id": "P0092",
    "location": "Lake Tahoe",
    "property_type": "chalet",
    "price_per_night": 331,
    "features": [
      "bikes",
      "dishwasher",
      "fireplace",
      "hot_tub",
      "kayaks",
      "mountain_view",
      "wheelchair_accessible",
      "wifi",
      "workspace"
    ],
    "tags": [
      "hiking",
      "lakeside",
      "long_stay",
      "ski_in_out"
    ],
    "coordinates": {
      "lat": 39.0968,
      "lng": -120.0324
    },
    "bedrooms": 4
  },
  {
    "property_id": "P0093",
    "location": "Park City",
    "property_type": "villa",
    "price_per_night": 316,
    "features": [
      "bbq_grill",
      "dishwasher",
      "fireplace",
      "hot_tub",
      "mountain_view",
      "sauna",
      "washer_dryer",
      "wheelchair_accessible",
      "wifi"
    ],
    "tags": [
      "eco_friendly",
      "hiking",
      "ski_in_out"
    ],
    "coordinates": {
      "lat": 40.6461,
      "lng": -111.498
    },
    "bedrooms": 4
  },
  {
    "property_id": "P0094",
    "location": "Nashville",
    "property_type": "condo",
    "price_per_night": 230,
    "features": [
      "bbq_grill",
      "fireplace",
      "gym",
      "kayaks",
      "parking",
      "wheelchair_accessible",
      "wifi"
    ],
    "tags": [
      "city_center",
      "long_stay",
      "luxury",
      "new_listing",
      "nightlife"
    ],
    "coordinates": {
      "lat": 36.1627,
      "lng": -86.7816
    },
    "bedrooms": 1
  },
  {
    "property_id": "P0095",
    "location": "Toronto",
    "property_type": "yurt",
    "price_per_night": 164,
    "features": [
      "bbq_grill",
      "fireplace",
      "game_room",
      "lake_view",
      "wifi"
    ],
    "tags": [
      "city_center",
      "eco_friendly",
      "hiking",
      "lakeside",
      "new_listing"
    ],
    "coordinates": {
      "lat": 43.6532,
      "lng": -79.3832
    },
    "bedrooms": 1
  },
  {
    "property_id": "P0096",
    "location": "Kingston",
    "property_type": "house",
    "price_per_night": 257,
    "features": [
      "bbq_grill",
      "ev_charger",
      "gym",
      "lake_view",
      "parking",
      "sauna",
      "smart_tv",
      "washer_dryer",
      "wifi"
    ],
    "tags": [
      "lakeside",
      "romantic"
    ],
    "coordinates": {
      "lat": 44.2312,
      "lng": -76.486
    },
    "bedrooms": 4
  },
  {
    "property_id": "P0097",
    "location": "Vienna",
    "property_type": "bungalow",
    "price_per_night": 114,
    "features": [
      "air_conditioning",
      "bikes",
      "dishwasher",
      "ev_charger",
      "parking",
      "wheelchair_accessible",
      "wifi",
      "workspace"
    ],
    "tags": [
      "secluded"
    ],
    "coordinates": {
      "lat": 48.2082,
      "lng": 16.3738
    },
    "bedrooms": 2
  },
  {
    "property_id": "P0098",
    "location": "Dubai",
    "property_type": "villa",
    "price_per_night": 257,
    "features": [
      "air_conditioning",
      "bbq_grill",
      "bikes",
      "fireplace",
      "ocean_view",
      "parking",
      "pet_friendly",
      "sauna",
      "wifi"
    ],
    "tags": [
      "beachfront",
      "eco_friendly",
      "long_stay",
      "luxury"
    ],
    "coordinates": {
      "lat": 25.2048,
      "lng": 55.2708
    },
    "bedrooms": 7
  },
  {
    "property_id": "P0099",
    "location": "Aspen",
    "property_type": "bungalow",
    "price_per_night": 304,
    "features": [
      "bbq_grill",
      "ev_charger",
      "fireplace",
      "hot_tub",
      "pet_friendly",
      "pool",
      "smart_tv",
      "wheelchair_accessible",
      "wifi"
    ],
    "tags": [
      "hiking",
      "luxury",
      "secluded",
      "ski_in_out"
    ],
    "coordinates": {
      "lat": 39.1911,
      "lng": -106.8175
    },
    "bedrooms": 3
  },
  {
    "property_id": "P0100",
    "location": "Montreal",
    "property_type": "cabin",
    "price_per_night": 232,
    "features": [
      "fireplace",
      "game_room",
      "parking",
      "wheelchair_accessible",
      "wifi",
      "workspace"
    ],
    "tags": [
      "luxury"
    ],
    "coordinates": {
      "lat": 45.5019,
      "lng": -73.5674
    },
    "bedrooms": 2
  },
  {
    "property_id": "P0101",
    "location": "Park City",
    "property_type": "yurt",
    "price_per_night": 222,
    "features": [
      "bbq_grill",
      "bikes",
      "fireplace",
      "hot_tub",
      "mountain_view",
      "sauna",
      "washer_dryer",
      "wifi"
    ],
    "tags": [
      "city_center",
      "eco_friendly",
      "family_friendly",
      "hiking",
      "secluded"
    ],
    "coordinates": {
      "lat": 40.6461,
      "lng": -111.498
    },
    "bedrooms": 1
  },
  {
    "property_id": "P0102",
    "location": "Santa Fe",
    "property_type": "yurt",
    "price_per_night": 168,
    "features": [
      "bbq_grill",
      "fireplace",
      "kayaks",
      "mountain_view",
      "parking",
      "pool",
      "wheelchair_accessible",
      "wifi"
    ],
    "tags": [
      "eco_friendly",
      "new_listing",
      "nightlife",
      "romantic",
      "secluded"
    ],
    "coordinates": {
      "lat": 35.687,
      "lng": -105.9378
    },
    "bedrooms": 1
  },
  {
    "property_id": "P0103",
    "location": "Austin",
    "property_type": "chalet",
    "price_per_night": 226,
    "features": [
      "air_conditioning",
      "dishwasher",
      "ev_charger",
      "gym",
      "parking",
      "pool",
      "washer_dryer",
      "wifi"
    ],
    "tags": [
      "hiking",
      "long_stay",
      "luxury"
    ],
    "coordinates": {
      "lat": 30.2672,
      "lng": -97.7431
    },
    "bedrooms": 2
  },
  {
    "property_id": "P0104",
    "location": "Melbourne",
    "property_type": "condo",
    "price_per_night": 104,
    "features": [
      "air_conditioning",
      "dishwasher",
      "ocean_view",
      "pool",
      "smart_tv",
      "wifi",
      "workspace"
    ],
    "tags": [
      "beachfront",
      "nightlife",
      "secluded"
    ],
    "coordinates": {
      "lat": -37.8136,
      "lng": 144.9631
    },
    "bedrooms": 2
  },
  {
    "property_id": "P0105",
    "location": "Maui",
    "property_type": "villa",
    "price_per_night": 355,
    "features": [
      "air_conditioning",
      "bbq_grill",
      "fireplace",
      "ocean_view",
      "pet_friendly",
      "washer_dryer",
      "wifi"
    ],
    "tags": [
      "beachfront",
      "romantic"
    ],
    "coordinates": {
      "lat": 20.7984,
      "lng": -156.3319
    },
    "bedrooms": 4
  },
  {
    "property_id": "P0106",
    "location": "Maui",
    "property_type": "villa",
    "price_per_night": 412,
    "features": [
      "air_conditioning",
      "bbq_grill",
      "bikes",
      "ocean_view",
      "pool",
      "sauna",
      "washer_dryer",
      "wheelchair_accessible",
      "wifi"
    ],
    "tags": [
      "beachfront",
      "romantic"
    ],
    "coordinates": {
      "lat": 20.7984,
      "lng": -156.3319
    },
    "bedrooms": 3
  },
  {
    "property_id": "P0107",
    "location": "Whistler",
    "property_type": "bungalow",
    "price_per_night": 226,
    "features": [
      "ev_charger",
      "fireplace",
      "hot_tub",
      "kayaks",
      "mountain_view",
      "pet_friendly",
      "sauna",
      "smart_tv",
      "workspace"
    ],
    "tags": [
      "city_center",
      "hiking",
      "secluded",
      "ski_in_out"
    ],
    "coordinates": {
      "lat": 50.1163,
      "lng": -122.9574
    },
    "bedrooms": 3
  },
  {
    "property_id": "P0108",
    "location": "Park City",
    "property_type": "cottage",
    "price_per_night": 303,
    "features": [
      "fireplace",
      "game_room",
      "hot_tub",
      "mountain_view",
      "wifi"
    ],
    "tags": [
      "hiking",
      "romantic",
      "ski_in_out",
      "superhost"
    ],
    "coordinates": {
      "lat": 40.6461,
      "lng": -111.498
    },
    "bedrooms": 2
  },
  {
    "property_id": "P0109",
    "location": "Charleston",
    "property_type": "apartment",
    "price_per_night": 169,
    "features": [
      "game_room",
      "ocean_view",
      "smart_tv",
      "wifi"
    ],
    "tags": [
      "beachfront",
      "city_center",
      "hiking",
      "new_listing",
      "nightlife"
    ],
    "coordinates": {
      "lat": 32.7765,
      "lng": -79.9311
    },
    "bedrooms": 3
  },
  {
    "property_id": "P0110",
    "location": "Budapest",
    "property_type": "villa",
    "price_per_night": 291,
    "features": [
      "bbq_grill",
      "bikes",
      "dishwasher",
      "game_room",
      "hot_tub",
      "smart_tv",
      "washer_dryer",
      "wheelchair_accessible",
      "wifi"
    ],
    "tags": [
      "eco_friendly",
      "new_listing",
      "nightlife"
    ],
    "coordinates": {
      "lat": 47.4979,
      "lng": 19.0402
    },
    "bedrooms": 3
  },
  {
    "property_id": "P0111",
    "location": "Rio de Janeiro",
    "property_type": "cabin",
    "price_per_night": 250,
    "features": [
      "bikes",
      "ev_charger",
      "fireplace",
      "game_room",
      "ocean_view",
      "pool",
      "sauna",
      "washer_dryer",
      "wifi"
    ],
    "tags": [
      "beachfront",
      "hiking",
      "new_listing",
      "romantic"
    ],
    "coordinates": {
      "lat": -22.9068,
      "lng": -43.1729
    },
    "bedrooms": 2
  },
  {
    "property_id": "P0112",
    "location": "Kelowna",
    "property_type": "condo",
    "price_per_night": 170,
    "features": [
      "hot_tub",
      "lake_view",
      "parking",
      "pet_friendly",
      "sauna",
      "smart_tv",
      "washer_dryer",
      "wifi"
    ],
    "tags": [
      "budget",
      "lakeside",
      "luxury",
      "nightlife",
      "secluded"
    ],
    "coordinates": {
      "lat": 49.8879,
      "lng": -119.496
    },
    "bedrooms": 1
  },
  {
    "property_id": "P0113",
    "location": "Banff",
    "property_type": "yurt",
    "price_per_night": 159,
    "features": [
      "bikes",
      "fireplace",
      "hot_tub",
      "kayaks",
      "mountain_view",
      "parking",
      "pool",
      "wheelchair_accessible",
      "wifi"
    ],
    "tags": [
      "eco_friendly",
      "hiking",
      "long_stay",
      "luxury",
      "secluded"
    ],
    "coordinates": {
      "lat": 51.1784,
      "lng": -115.5708
    },
    "bedrooms": 1
  },
  {
    "property_id": "P0114",
    "location": "Niagara-on-the-Lake",
    "property_type": "townhouse",
    "price_per_night": 123,
    "features": [
      "lake_view",
      "pet_friendly",
      "wheelchair_accessible",
      "wifi"
    ],
    "tags": [
      "city_center",
      "eco_friendly",
      "lakeside"
    ],
    "coordinates": {
      "lat": 43.255,
      "lng": -79.0716
    },
    "bedrooms": 3
  },
  {
    "property_id": "P0115",
    "location": "Nashville",
    "property_type": "apartment",
    "price_per_night": 226,
    "features": [
      "bbq_grill",
      "bikes",
      "gym",
      "hot_tub",
      "kayaks",
      "wifi"
    ],
    "tags": [
      "hiking",
      "nightlife",
      "secluded"
    ],
    "coordinates": {
      "lat": 36.1627,
      "lng": -86.7816
    },
    "bedrooms": 2
  },
  {
    "property_id": "P0116",
    "location": "Park City",
    "property_type": "house",
    "price_per_night": 348,
    "features": [
      "bbq_grill",
      "fireplace",
      "game_room",
      "hot_tub",
      "mountain_view",
      "pool",
      "sauna",
      "smart_tv",
      "washer_dryer"
    ],
    "tags": [
      "hiking",
      "luxury",
      "ski_in_out"
    ],
    "coordinates": {
      "lat": 40.6461,
      "lng": -111.498
    },
    "bedrooms": 6
  },
  {
    "property_id": "P0117",
    "location": "Calgary",
    "property_type": "cottage",
    "price_per_night": 165,
    "features": [
      "air_conditioning",
      "bbq_grill",
      "bikes",
      "dishwasher",
      "wifi"
    ],
    "tags": [
      "long_stay",
      "luxury"
    ],
    "coordinates": {
      "lat": 51.0447,
      "lng": -114.0719
    },
    "bedrooms": 3
  },
  {
    "property_id": "P0118",
    "location": "Saskatoon",
    "property_type": "cottage",
    "price_per_night": 172,
    "features": [
      "fireplace",
      "game_room",
      "kayaks",
      "pet_friendly",
      "smart_tv",
      "wifi"
    ],
    "tags": [
      "new_listing"
    ],
    "coordinates": {
      "lat": 52.1332,
      "lng": -106.67
    },
    "bedrooms": 3
  },
  {
    "property_id": "P0119",
    "location": "Barcelona",
    "property_type": "house",
    "price_per_night": 281,
    "features": [
      "air_conditioning",
      "bbq_grill",
      "bikes",
      "game_room",
      "ocean_view",
      "pool",
      "sauna",
      "smart_tv",
      "wifi"
    ],
    "tags": [
      "beachfront",
      "eco_friendly"
    ],
    "coordinates": {
      "lat": 41.3874,
      "lng": 2.1686
    },
    "bedrooms": 5
  },
  {
    "property_id": "P0120",
    "location": "Kelowna",
    "property_type": "house",
    "price_per_night": 121,
    "features": [
      "bbq_grill",
      "lake_view",
      "pet_friendly",
      "washer_dryer",
      "wifi",
      "workspace"
    ],
    "tags": [
      "lakeside",
      "long_stay",
      "new_listing",
      "secluded"
    ],
    "coordinates": {
      "lat": 49.8879,
      "lng": -119.496
    },
    "bedrooms": 3
  },
  {
    "property_id": "P0121",
    "location": "Boston",
    "property_type": "cabin",
    "price_per_night": 200,
    "features": [
      "dishwasher",
      "ev_charger",
      "ocean_view",
      "sauna",
      "wifi"
    ],
    "tags": [
      "beachfront",
      "eco_friendly",
      "luxury",
      "new_listing",
      "superhost"
    ],
    "coordinates": {
      "lat": 42.3601,
      "lng": -71.0589
    },
    "bedrooms": 1
  },
  {
    "property_id": "P0122",
    "location": "Phoenix",
    "property_type": "condo",
    "price_per_night": 179,
    "features": [
      "air_conditioning",
      "bikes",
      "hot_tub",
      "kayaks",
      "pool",
      "sauna",
      "wifi"
    ],
    "tags": [
      "long_stay",
      "nightlife"
    ],
    "coordinates": {
      "lat": 33.4484,
      "lng": -112.074
    },
    "bedrooms": 1
  },
  {
    "property_id": "P0123",
    "location": "Charlottetown",
    "property_type": "apartment",
    "price_per_night": 222,
    "features": [
      "dishwasher",
      "smart_tv",
      "wifi",
      "parking"
    ],
    "tags": [
      "hiking",
      "long_stay",
      "luxury",
      "nightlife"
    ],
    "coordinates": {
      "lat": 46.2382,
      "lng": -63.1311
    },
    "bedrooms": 2
  },
  {
    "property_id": "P0124",
    "location": "Aspen",
    "property_type": "townhouse",
    "price_per_night": 261,
    "features": [
      "air_conditioning",
      "fireplace",
      "hot_tub",
      "mountain_view",
      "washer_dryer",
      "wheelchair_accessible",
      "wifi"
    ],
    "tags": [
      "budget",
      "eco_friendly",
      "hiking",
      "nightlife",
      "ski_in_out"
    ],
    "coordinates": {
      "lat": 39.1911,
      "lng": -106.8175
    },
    "bedrooms": 4
  },
  {
    "property_id": "P0125",
    "location": "Kelowna",
    "property_type": "apartment",
    "price_per_night": 136,
    "features": [
      "fireplace",
      "lake_view",
      "pool",
      "wheelchair_accessible",
      "wifi"
    ],
    "tags": [
      "lakeside",
      "nightlife"
    ],
    "coordinates": {
      "lat": 49.8879,
      "lng": -119.496
    },
    "bedrooms": 2
  },
  {
    "property_id": "P0126",
    "location": "Austin",
    "property_type": "townhouse",
    "price_per_night": 262,
    "features": [
      "air_conditioning",
      "hot_tub",
      "parking",
      "pet_friendly",
      "sauna",
      "wheelchair_accessible",
      "wifi"
    ],
    "tags": [
      "superhost"
    ],
    "coordinates": {
      "lat": 30.2672,
      "lng": -97.7431
    },
    "bedrooms": 3
  },
  {
    "property_id": "P0127",
    "location": "Charlottetown",
    "property_type": "townhouse",
    "price_per_night": 110,
    "features": [
      "game_room",
      "washer_dryer",
      "wheelchair_accessible",
      "wifi"
    ],
    "tags": [
      "long_stay"
    ],
    "coordinates": {
      "lat": 46.2382,
      "lng": -63.1311
    },
    "bedrooms": 2
  },
  {
    "property_id": "P0128",
    "location": "Prague",
    "property_type": "yurt",
    "price_per_night": 202,
    "features": [
      "air_conditioning",
      "fireplace",
      "hot_tub",
      "kayaks",
      "wifi",
      "workspace"
    ],
    "tags": [
      "city_center",
      "eco_friendly",
      "luxury",
      "romantic",
      "secluded"
    ],
    "coordinates": {
      "lat": 50.0755,
      "lng": 14.4378
    },
    "bedrooms": 1
  },
  {
    "property_id": "P0129",
    "location": "Blue Mountains",
    "property_type": "cabin",
    "price_per_night": 166,
    "features": [
      "bbq_grill",
      "fireplace",
      "gym",
      "hot_tub",
      "lake_view",
      "mountain_view",
      "pool",
      "washer_dryer",
      "wifi"
    ],
    "tags": [
      "budget",
      "hiking",
      "lakeside",
      "romantic",
      "ski_in_out"
    ],
    "coordinates": {
      "lat": 44.5465,
      "lng": -80.382
    },
    "bedrooms": 3
  },
  {
    "property_id": "P0130",
    "location": "Montreal",
    "property_type": "cottage",
    "price_per_night": 211,
    "features": [
      "air_conditioning",
      "game_room",
      "parking",
      "smart_tv",
      "washer_dryer",
      "wifi"
    ],
    "tags": [
      "budget",
      "hiking"
    ],
    "coordinates": {
      "lat": 45.5019,
      "lng": -73.5674
    },
    "bedrooms": 2
  },
  {
    "property_id": "P0131",
    "location": "Kyoto",
    "property_type": "bungalow",
    "price_per_night": 199,
    "features": [
      "game_room",
      "pool",
      "smart_tv",
      "washer_dryer",
      "wifi"
    ],
    "tags": [
      "family_friendly"
    ],
    "coordinates": {
      "lat": 35.0116,
      "lng": 135.7681
    },
    "bedrooms": 3
  },
  {
    "property_id": "P0132",
    "location": "Saskatoon",
    "property_type": "cabin",
    "price_per_night": 111,
    "features": [
      "ev_charger",
      "hot_tub",
      "pool",
      "wifi",
      "workspace"
    ],
    "tags": [
      "budget",
      "secluded"
    ],
    "coordinates": {
      "lat": 52.1332,
      "lng": -106.67
    },
    "bedrooms": 1
  },
  {
    "property_id": "P0133",
    "location": "Banff",
    "property_type": "house",
    "price_per_night": 253,
    "features": [
      "air_conditioning",
      "bikes",
      "dishwasher",
      "fireplace",
      "hot_tub",
      "kayaks",
      "mountain_view",
      "washer_dryer",
      "wifi"
    ],
    "tags": [
      "hiking",
      "luxury",
      "ski_in_out"
    ],
    "coordinates": {
      "lat": 51.1784,
      "lng": -115.5708
    },
    "bedrooms": 5
  },
  {
    "property_id": "P0134",
    "location": "Santa Fe",
    "property_type": "apartment",
    "price_per_night": 135,
    "features": [
      "dishwasher",
      "fireplace",
      "kayaks",
      "mountain_view",
      "smart_tv",
      "wifi"
    ],
    "tags": [
      "family_friendly",
      "nightlife",
      "secluded"
    ],
    "coordinates": {
      "lat": 35.687,
      "lng": -105.9378
    },
    "bedrooms": 1
  },
  {
    "property_id": "P0135",
    "location": "Calgary",
    "property_type": "townhouse",
    "price_per_night": 274,
    "features": [
      "bikes",
      "fireplace",
      "kayaks",
      "pool",
      "wifi",
      "workspace"
    ],
    "tags": [
      "city_center",
      "family_friendly",
      "secluded"
    ],
    "coordinates": {
      "lat": 51.0447,
      "lng": -114.0719
    },
    "bedrooms": 4
  },
  {
    "property_id": "P0136",
    "location": "Halifax",
    "property_type": "chalet",
    "price_per_night": 277,
    "features": [
      "bbq_grill",
      "parking",
      "wifi",
      "workspace"
    ],
    "tags": [
      "family_friendly"
    ],
    "coordinates": {
      "lat": 44.6488,
      "lng": -63.5752
    },
    "bedrooms": 3
  },
  {
    "property_id": "P0137",
    "location": "Miami",
    "property_type": "house",
    "price_per_night": 243,
    "features": [
      "air_conditioning",
      "dishwasher",
      "ev_charger",
      "game_room",
      "gym",
      "hot_tub",
      "kayaks",
      "wifi",
      "workspace"
    ],
    "tags": [
      "beachfront",
      "superhost"
    ],
    "coordinates": {
      "lat": 25.7617,
      "lng": -80.1918
    },
    "bedrooms": 6
  },
  {
    "property_id": "P0138",
    "location": "Aspen",
    "property_type": "villa",
    "price_per_night": 421,
    "features": [
      "bbq_grill",
      "fireplace",
      "game_room",
      "gym",
      "parking",
      "washer_dryer",
      "wheelchair_accessible",
      "wifi",
      "workspace"
    ],
    "tags": [
      "eco_friendly",
      "hiking",
      "long_stay",
      "ski_in_out"
    ],
    "coordinates": {
      "lat": 39.1911,
      "lng": -106.8175
    },
    "bedrooms": 5
  },
  {
    "property_id": "P0139",
    "location": "Lake Tahoe",
    "property_type": "townhouse",
    "price_per_night": 341,
    "features": [
      "bikes",
      "dishwasher",
      "fireplace",
      "hot_tub",
      "lake_view",
      "mountain_view",
      "sauna",
      "wifi",
      "workspace"
    ],
    "tags": [
      "hiking",
      "lakeside",
      "romantic",
      "ski_in_out",
      "superhost"
    ],
    "coordinates": {
      "lat": 39.0968,
      "lng": -120.0324
    },
    "bedrooms": 3
  },
  {
    "property_id": "P0140",
    "location": "Victoria",
    "property_type": "cottage",
    "price_per_night": 145,
    "features": [
      "ev_charger",
      "ocean_view",
      "pool",
      "wheelchair_accessible",
      "wifi"
    ],
    "tags": [
      "beachfront",
      "luxury",
      "superhost"
    ],
    "coordinates": {
      "lat": 48.4284,
      "lng": -123.3656
    },
    "bedrooms": 2
  },
  {
    "property_id": "P0141",
    "location": "Victoria",
    "property_type": "condo",
    "price_per_night": 154,
    "features": [
      "game_room",
      "gym",
      "hot_tub",
      "ocean_view",
      "smart_tv",
      "washer_dryer",
      "wifi"
    ],
    "tags": [
      "beachfront",
      "eco_friendly",
      "hiking",
      "new_listing",
      "nightlife"
    ],
    "coordinates": {
      "lat": 48.4284,
      "lng": -123.3656
    },
    "bedrooms": 2
  },
  {
    "property_id": "P0142",
    "location": "Vancouver",
    "property_type": "apartment",
    "price_per_night": 261,
    "features": [
      "bbq_grill",
      "fireplace",
      "ocean_view",
      "pool",
      "wifi"
    ],
    "tags": [
      "beachfront",
      "city_center",
      "family_friendly",
      "luxury",
      "nightlife"
    ],
    "coordinates": {
      "lat": 49.2827,
      "lng": -123.1207
    },
    "bedrooms": 2
  },
  {
    "property_id": "P0143",
    "location": "Budapest",
    "property_type": "cabin",
    "price_per_night": 250,
    "features": [
      "dishwasher",
      "hot_tub",
      "parking",
      "wifi"
    ],
    "tags": [
      "hiking",
      "long_stay"
    ],
    "coordinates": {
      "lat": 47.4979,
      "lng": 19.0402
    },
    "bedrooms": 2
  },
  {
    "property_id": "P0144",
    "location": "Thunder Bay",
    "property_type": "townhouse",
    "price_per_night": 152,
    "features": [
      "bbq_grill",
      "dishwasher",
      "lake_view",
      "sauna",
      "washer_dryer",
      "wifi"
    ],
    "tags": [
      "lakeside",
      "new_listing"
    ],
    "coordinates": {
      "lat": 48.3809,
      "lng": -89.2477
    },
    "bedrooms": 2
  },
  {
    "property_id": "P0145",
    "location": "Winnipeg",
    "property_type": "yurt",
    "price_per_night": 96,
    "features": [
      "ev_charger",
      "game_room",
      "kayaks",
      "parking",
      "sauna",
      "wifi"
    ],
    "tags": [
      "eco_friendly",
      "hiking",
      "new_listing",
      "nightlife",
      "secluded"
    ],
    "coordinates": {
      "lat": 49.8951,
      "lng": -97.1384
    },
    "bedrooms": 1
  },
  {
    "property_id": "P0146",
    "location": "Austin",
    "property_type": "cabin",
    "price_per_night": 198,
    "features": [
      "air_conditioning",
      "gym",
      "pool",
      "wifi"
    ],
    "tags": [
      "long_stay",
      "new_listing",
      "superhost"
    ],
    "coordinates": {
      "lat": 30.2672,
      "lng": -97.7431
    },
    "bedrooms": 3
  },
  {
    "property_id": "P0147",
    "location": "Toronto",
    "property_type": "condo",
    "price_per_night": 205,
    "features": [
      "air_conditioning",
      "dishwasher",
      "kayaks",
      "lake_view",
      "pet_friendly",
      "wheelchair_accessible",
      "wifi",
      "workspace"
    ],
    "tags": [
      "city_center",
      "lakeside",
      "nightlife",
      "secluded"
    ],
    "coordinates": {
      "lat": 43.6532,
      "lng": -79.3832
    },
    "bedrooms": 2
  },
  {
    "property_id": "P0148",
    "location": "Maui",
    "property_type": "bungalow",
    "price_per_night": 270,
    "features": [
      "air_conditioning",
      "ev_charger",
      "ocean_view",
      "washer_dryer",
      "wifi",
      "workspace"
    ],
    "tags": [
      "beachfront"
    ],
    "coordinates": {
      "lat": 20.7984,
      "lng": -156.3319
    },
    "bedrooms": 3
  },
  {
    "property_id": "P0149",
    "location": "Ottawa",
    "property_type": "house",
    "price_per_night": 240,
    "features": [
      "air_conditioning",
      "bbq_grill",
      "dishwasher",
      "gym",
      "washer_dryer",
      "wifi"
    ],
    "tags": [
      "hiking"
    ],
    "coordinates": {
      "lat": 45.4215,
      "lng": -75.6972
    },
    "bedrooms": 4
  },
  {
    "property_id": "P0150",
    "location": "Vancouver",
    "property_type": "cottage",
    "price_per_night": 362,
    "features": [
      "bikes",
      "kayaks",
      "ocean_view",
      "parking",
      "smart_tv",
      "wheelchair_accessible",
      "wifi"
    ],
    "tags": [
      "beachfront",
      "family_friendly",
      "secluded",
      "superhost"
    ],
    "coordinates": {
      "lat": 49.2827,
      "lng": -123.1207
    },
    "bedrooms": 3
  },
  {
    "property_id": "P0151",
    "location": "Asheville",
    "property_type": "chalet",
    "price_per_night": 246,
    "features": [
      "bbq_grill",
      "fireplace",
      "game_room",
      "gym",
      "mountain_view",
      "pet_friendly",
      "wheelchair_accessible",
      "wifi",
      "workspace"
    ],
    "tags": [
      "hiking"
    ],
    "coordinates": {
      "lat": 35.5951,
      "lng": -82.5515
    },
    "bedrooms": 5
  },
  {
    "property_id": "P0152",
    "location": "Kauai",
    "property_type": "chalet",
    "price_per_night": 280,
    "features": [
      "air_conditioning",
      "fireplace",
      "kayaks",
      "ocean_view",
      "parking",
      "smart_tv",
      "wifi"
    ],
    "tags": [
      "beachfront",
      "eco_friendly",
      "new_listing"
    ],
    "coordinates": {
      "lat": 22.0964,
      "lng": -159.5261
    },
    "bedrooms": 4
  },
  {
    "property_id": "P0153",
    "location": "Aspen",
    "property_type": "cabin",
    "price_per_night": 342,
    "features": [
      "dishwasher",
      "fireplace",
      "hot_tub",
      "mountain_view",
      "parking",
      "pet_friendly",
      "wifi"
    ],
    "tags": [
      "family_friendly",
      "hiking",
      "romantic",
      "ski_in_out"
    ],
    "coordinates": {
      "lat": 39.1911,
      "lng": -106.8175
    },
    "bedrooms": 2
  },
  {
    "property_id": "P0154",
    "location": "Toronto",
    "property_type": "house",
    "price_per_night": 233,
    "features": [
      "bbq_grill",
      "game_room",
      "gym",
      "lake_view",
      "ocean_view",
      "sauna",
      "washer_dryer",
      "wifi"
    ],
    "tags": [
      "city_center",
      "eco_friendly",
      "lakeside"
    ],
    "coordinates": {
      "lat": 43.6532,
      "lng": -79.3832
    },
    "bedrooms": 4
  },
  {
    "property_id": "P0155",
    "location": "Nashville",
    "property_type": "yurt",
    "price_per_night": 98,
    "features": [
      "air_conditioning",
      "bbq_grill",
      "fireplace",
      "parking",
      "wifi",
      "workspace"
    ],
    "tags": [
      "city_center",
      "eco_friendly",
      "nightlife",
      "romantic",
      "secluded"
    ],
    "coordinates": {
      "lat": 36.1627,
      "lng": -86.7816
    },
    "bedrooms": 1
  },
  {
    "property_id": "P0156",
    "location": "Saskatoon",
    "property_type": "cottage",
    "price_per_night": 150,
    "features": [
      "bikes",
      "dishwasher",
      "gym",
      "hot_tub",
      "wifi"
    ],
    "tags": [
      "family_friendly",
      "long_stay",
      "superhost"
    ],
    "coordinates": {
      "lat": 52.1332,
      "lng": -106.67
    },
    "bedrooms": 3
  },
  {
    "property_id": "P0157",
    "location": "Boston",
    "property_type": "chalet",
    "price_per_night": 196,
    "features": [
      "dishwasher",
      "hot_tub",
      "ocean_view",
      "washer_dryer",
      "wifi"
    ],
    "tags": [
      "beachfront",
      "secluded"
    ],
    "coordinates": {
      "lat": 42.3601,
      "lng": -71.0589
    },
    "bedrooms": 5
  },
  {
    "property_id": "P0158",
    "location": "Dubrovnik",
    "property_type": "apartment",
    "price_per_night": 159,
    "features": [
      "bikes",
      "ev_charger",
      "game_room",
      "ocean_view",
      "parking",
      "pet_friendly",
      "washer_dryer",
      "wheelchair_accessible",
      "wifi"
    ],
    "tags": [
      "beachfront",
      "family_friendly",
      "nightlife"
    ],
    "coordinates": {
      "lat": 42.6507,
      "lng": 18.0944
    },
    "bedrooms": 1
  },
  {
    "property_id": "P0159",
    "location": "Melbourne",
    "property_type": "chalet",
    "price_per_night": 225,
    "features": [
      "air_conditioning",
      "fireplace",
      "game_room",
      "ocean_view",
      "wifi"
    ],
    "tags": [
      "beachfront",
      "new_listing",
      "secluded"
    ],
    "coordinates": {
      "lat": -37.8136,
      "lng": 144.9631
    },
    "bedrooms": 5
  },
  {
    "property_id": "P0160",
    "location": "Seattle",
    "property_type": "house",
    "price_per_night": 193,
    "features": [
      "bbq_grill",
      "fireplace",
      "ocean_view",
      "parking",
      "pet_friendly",
      "washer_dryer",
      "wifi"
    ],
    "tags": [
      "beachfront",
      "city_center",
      "new_listing"
    ],
    "coordinates": {
      "lat": 47.6062,
      "lng": -122.3321
    },
    "bedrooms": 5
  },
  {
    "property_id": "P0161",
    "location": "Lisbon",
    "property_type": "apartment",
    "price_per_night": 151,
    "features": [
      "ev_charger",
      "game_room",
      "ocean_view",
      "wifi"
    ],
    "tags": [
      "beachfront",
      "long_stay",
      "nightlife",
      "superhost"
    ],
    "coordinates": {
      "lat": 38.7223,
      "lng": -9.1393
    },
    "bedrooms": 1
  },
  {
    "property_id": "P0162",
    "location": "Blue Mountains",
    "property_type": "cabin",
    "price_per_night": 148,
    "features": [
      "fireplace",
      "hot_tub",
      "lake_view",
      "mountain_view",
      "pet_friendly",
      "pool",
      "sauna",
      "smart_tv",
      "wifi"
    ],
    "tags": [
      "hiking",
      "lakeside",
      "nightlife",
      "ski_in_out",
      "superhost"
    ],
    "coordinates": {
      "lat": 44.5465,
      "lng": -80.382
    },
    "bedrooms": 2
  },
  {
    "property_id": "P0163",
    "location": "Chicago",
    "property_type": "cabin",
    "price_per_night": 242,
    "features": [
      "air_conditioning",
      "game_room",
      "hot_tub",
      "pool",
      "wifi"
    ],
    "tags": [
      "budget"
    ],
    "coordinates": {
      "lat": 41.8781,
      "lng": -87.6298
    },
    "bedrooms": 1
  },
  {
    "property_id": "P0164",
    "location": "Charleston",
    "property_type": "house",
    "price_per_night": 129,
    "features": [
      "bbq_grill",
      "ev_charger",
      "gym",
      "ocean_view",
      "washer_dryer",
      "wheelchair_accessible",
      "wifi"
    ],
    "tags": [
      "beachfront",
      "eco_friendly",
      "superhost"
    ],
    "coordinates": {
      "lat": 32.7765,
      "lng": -79.9311
    },
    "bedrooms": 5
  },
  {
    "property_id": "P0165",
    "location": "Calgary",
    "property_type": "yurt",
    "price_per_night": 207,
    "features": [
      "bikes",
      "ev_charger",
      "parking",
      "wifi",
      "workspace"
    ],
    "tags": [
      "budget",
      "eco_friendly",
      "luxury",
      "nightlife",
      "secluded"
    ],
    "coordinates": {
      "lat": 51.0447,
      "lng": -114.0719
    },
    "bedrooms": 1
  },
  {
    "property_id": "P0166",
    "location": "Miami",
    "property_type": "cottage",
    "price_per_night": 153,
    "features": [
      "air_conditioning",
      "game_room",
      "kayaks",
      "ocean_view",
      "parking",
      "wifi",
      "workspace"
    ],
    "tags": [
      "beachfront",
      "hiking"
    ],
    "coordinates": {
      "lat": 25.7617,
      "lng": -80.1918
    },
    "bedrooms": 2
  },
  {
    "property_id": "P0167",
    "location": "Edmonton",
    "property_type": "townhouse",
    "price_per_night": 137,
    "features": [
      "pool",
      "washer_dryer",
      "wifi",
      "parking"
    ],
    "tags": [
      "eco_friendly",
      "family_friendly",
      "hiking",
      "luxury"
    ],
    "coordinates": {
      "lat": 53.5461,
      "lng": -113.4938
    },
    "bedrooms": 4
  },
  {
    "property_id": "P0168",
    "location": "Blue Mountains",
    "property_type": "apartment",
    "price_per_night": 132,
    "features": [
      "air_conditioning",
      "ev_charger",
      "fireplace",
      "gym",
      "hot_tub",
      "mountain_view",
      "wheelchair_accessible",
      "wifi",
      "workspace"
    ],
    "tags": [
      "budget",
      "hiking",
      "lakeside",
      "nightlife",
      "ski_in_out"
    ],
    "coordinates": {
      "lat": 44.5465,
      "lng": -80.382
    },
    "bedrooms": 3
  },
  {
    "property_id": "P0169",
    "location": "Edmonton",
    "property_type": "apartment",
    "price_per_night": 172,
    "features": [
      "air_conditioning",
      "bbq_grill",
      "fireplace",
      "parking",
      "pool",
      "wifi"
    ],
    "tags": [
      "luxury",
      "nightlife",
      "superhost"
    ],
    "coordinates": {
      "lat": 53.5461,
      "lng": -113.4938
    },
    "bedrooms": 1
  },
  {
    "property_id": "P0170",
    "location": "Sedona",
    "property_type": "condo",
    "price_per_night": 222,
    "features": [
      "air_conditioning",
      "fireplace",
      "game_room",
      "hot_tub",
      "mountain_view",
      "parking",
      "pool",
      "smart_tv",
      "wifi"
    ],
    "tags": [
      "family_friendly",
      "new_listing",
      "nightlife"
    ],
    "coordinates": {
      "lat": 34.8697,
      "lng": -111.7609
    },
    "bedrooms": 3
  },
  {
    "property_id": "P0171",
    "location": "Seattle",
    "property_type": "cottage",
    "price_per_night": 161,
    "features": [
      "bikes",
      "dishwasher",
      "ev_charger",
      "ocean_view",
      "sauna",
      "smart_tv",
      "washer_dryer",
      "wifi",
      "workspace"
    ],
    "tags": [
      "beachfront",
      "luxury",
      "secluded",
      "superhost"
    ],
    "coordinates": {
      "lat": 47.6062,
      "lng": -122.3321
    },
    "bedrooms": 3
  },
  {
    "property_id": "P0172",
    "location": "Boulder",
    "property_type": "villa",
    "price_per_night": 274,
    "features": [
      "bbq_grill",
      "fireplace",
      "mountain_view",
      "parking",
      "smart_tv",
      "washer_dryer",
      "wheelchair_accessible",
      "wifi",
      "workspace"
    ],
    "tags": [
      "hiking",
      "luxury",
      "romantic"
    ],
    "coordinates": {
      "lat": 40.01499,
      "lng": -105.2705
    },
    "bedrooms": 6
  },
  {
    "property_id": "P0173",
    "location": "Aspen",
    "property_type": "villa",
    "price_per_night": 373,
    "features": [
      "bbq_grill",
      "fireplace",
      "gym",
      "hot_tub",
      "mountain_view",
      "parking",
      "smart_tv",
      "washer_dryer",
      "wifi"
    ],
    "tags": [
      "eco_friendly",
      "hiking",
      "ski_in_out"
    ],
    "coordinates": {
      "lat": 39.1911,
      "lng": -106.8175
    },
    "bedrooms": 4
  },
  {
    "property_id": "P0174",
    "location": "Dubrovnik",
    "property_type": "house",
    "price_per_night": 145,
    "features": [
      "bbq_grill",
      "ocean_view",
      "washer_dryer",
      "wifi",
      "workspace"
    ],
    "tags": [
      "beachfront",
      "hiking",
      "romantic",
      "secluded"
    ],
    "coordinates": {
      "lat": 42.6507,
      "lng": 18.0944
    },
    "bedrooms": 6
  },
  {
    "property_id": "P0175",
    "location": "Seoul",
    "property_type": "condo",
    "price_per_night": 176,
    "features": [
      "air_conditioning",
      "bikes",
      "dishwasher",
      "ocean_view",
      "smart_tv",
      "wifi"
    ],
    "tags": [
      "beachfront",
      "long_stay",
      "luxury",
      "nightlife",
      "romantic"
    ],
    "coordinates": {
      "lat": 37.5665,
      "lng": 126.978
    },
    "bedrooms": 2
  },
  {
    "property_id": "P0176",
    "location": "Honolulu",
    "property_type": "bungalow",
    "price_per_night": 306,
    "features": [
      "air_conditioning",
      "bikes",
      "fireplace",
      "ocean_view",
      "smart_tv",
      "wifi"
    ],
    "tags": [
      "beachfront",
      "romantic"
    ],
    "coordinates": {
      "lat": 21.3099,
      "lng": -157.8581
    },
    "bedrooms": 3
  },
  {
    "property_id": "P0177",
    "location": "Charlottetown",
    "property_type": "villa",
    "price_per_night": 277,
    "features": [
      "bbq_grill",
      "bikes",
      "ev_charger",
      "game_room",
      "washer_dryer",
      "wheelchair_accessible",
      "wifi"
    ],
    "tags": [
      "eco_friendly",
      "hiking",
      "romantic"
    ],
    "coordinates": {
      "lat": 46.2382,
      "lng": -63.1311
    },
    "bedrooms": 3
  },
  {
    "property_id": "P0178",
    "location": "Miami",
    "property_type": "cottage",
    "price_per_night": 201,
    "features": [
      "air_conditioning",
      "bbq_grill",
      "gym",
      "ocean_view",
      "pet_friendly",
      "wheelchair_accessible",
      "wifi"
    ],
    "tags": [
      "beachfront",
      "family_friendly",
      "hiking",
      "superhost"
    ],
    "coordinates": {
      "lat": 25.7617,
      "lng": -80.1918
    },
    "bedrooms": 2
  },
  {
    "property_id": "P0179",
    "location": "Winnipeg",
    "property_type": "yurt",
    "price_per_night": 211,
    "features": [
      "air_conditioning",
      "bikes",
      "hot_tub",
      "parking",
      "wheelchair_accessible",
      "wifi"
    ],
    "tags": [
      "budget",
      "eco_friendly",
      "secluded"
    ],
    "coordinates": {
      "lat": 49.8951,
      "lng": -97.1384
    },
    "bedrooms": 1
  },
  {
    "property_id": "P0180",
    "location": "Vancouver",
    "property_type": "cabin",
    "price_per_night": 233,
    "features": [
      "game_room",
      "hot_tub",
      "ocean_view",
      "wifi"
    ],
    "tags": [
      "beachfront",
      "nightlife"
    ],
    "coordinates": {
      "lat": 49.2827,
      "lng": -123.1207
    },
    "bedrooms": 1
  },
  {
    "property_id": "P0181",
    "location": "Winnipeg",
    "property_type": "house",
    "price_per_night": 249,
    "features": [
      "bbq_grill",
      "fireplace",
      "gym",
      "pet_friendly",
      "washer_dryer",
      "wifi"
    ],
    "tags": [
      "hiking"
    ],
    "coordinates": {
      "lat": 49.8951,
      "lng": -97.1384
    },
    "bedrooms": 5
  },
  {
    "property_id": "P0182",
    "location": "Santa Fe",
    "property_type": "condo",
    "price_per_night": 160,
    "features": [
      "dishwasher",
      "fireplace",
      "mountain_view",
      "pet_friendly",
      "pool",
      "smart_tv",
      "wifi"
    ],
    "tags": [
      "eco_friendly",
      "nightlife",
      "secluded",
      "superhost"
    ],
    "coordinates": {
      "lat": 35.687,
      "lng": -105.9378
    },
    "bedrooms": 3
  },
  {
    "property_id": "P0183",
    "location": "Montreal",
    "property_type": "cottage",
    "price_per_night": 174,
    "features": [
      "parking",
      "smart_tv",
      "wheelchair_accessible",
      "wifi"
    ],
    "tags": [
      "romantic"
    ],
    "coordinates": {
      "lat": 45.5019,
      "lng": -73.5674
    },
    "bedrooms": 4
  },
  {
    "property_id": "P0184",
    "location": "Portland",
    "property_type": "yurt",
    "price_per_night": 165,
    "features": [
      "air_conditioning",
      "fireplace",
      "pet_friendly",
      "washer_dryer",
      "wifi",
      "workspace"
    ],
    "tags": [
      "budget",
      "city_center",
      "eco_friendly",
      "secluded"
    ],
    "coordinates": {
      "lat": 45.5152,
      "lng": -122.6784
    },
    "bedrooms": 1
  },
  {
    "property_id": "P0185",
    "location": "Blue Mountains",
    "property_type": "condo",
    "price_per_night": 135,
    "features": [
      "air_conditioning",
      "bikes",
      "fireplace",
      "hot_tub",
      "lake_view",
      "pool",
      "sauna",
      "washer_dryer",
      "wifi"
    ],
    "tags": [
      "budget",
      "city_center",
      "hiking",
      "nightlife",
      "ski_in_out"
    ],
    "coordinates": {
      "lat": 44.5465,
      "lng": -80.382
    },
    "bedrooms": 3
  },
  {
    "property_id": "P0186",
    "location": "Bangkok",
    "property_type": "bungalow",
    "price_per_night": 147,
    "features": [
      "air_conditioning",
      "dishwasher",
      "gym",
      "ocean_view",
      "parking",
      "wifi",
      "workspace"
    ],
    "tags": [
      "beachfront",
      "budget",
      "luxury"
    ],
    "coordinates": {
      "lat": 13.7563,
      "lng": 100.5018
    },
    "bedrooms": 3
  },
  {
    "property_id": "P0187",
    "location": "Toronto",
    "property_type": "chalet",
    "price_per_night": 310,
    "features": [
      "air_conditioning",
      "dishwasher",
      "hot_tub",
      "lake_view",
      "wifi"
    ],
    "tags": [
      "lakeside",
      "nightlife"
    ],
    "coordinates": {
      "lat": 43.6532,
      "lng": -79.3832
    },
    "bedrooms": 3
  },
  {
    "property_id": "P0188",
    "location": "Aspen",
    "property_type": "bungalow",
    "price_per_night": 297,
    "features": [
      "bikes",
      "fireplace",
      "game_room",
      "gym",
      "hot_tub",
      "mountain_view",
      "parking",
      "wheelchair_accessible",
      "wifi"
    ],
    "tags": [
      "hiking",
      "new_listing",
      "ski_in_out",
      "superhost"
    ],
    "coordinates": {
      "lat": 39.1911,
      "lng": -106.8175
    },
    "bedrooms": 3
  },
  {
    "property_id": "P0189",
    "location": "Dubrovnik",
    "property_type": "yurt",
    "price_per_night": 106,
    "features": [
      "bikes",
      "game_room",
      "hot_tub",
      "ocean_view",
      "wifi",
      "workspace"
    ],
    "tags": [
      "beachfront",
      "budget",
      "eco_friendly",
      "family_friendly",
      "secluded"
    ],
    "coordinates": {
      "lat": 42.6507,
      "lng": 18.0944
    },
    "bedrooms": 1
  },
  {
    "property_id": "P0190",
    "location": "Reykjavik",
    "property_type": "house",
    "price_per_night": 178,
    "features": [
      "bbq_grill",
      "ocean_view",
      "smart_tv",
      "washer_dryer",
      "wheelchair_accessible",
      "wifi"
    ],
    "tags": [
      "beachfront",
      "eco_friendly",
      "luxury",
      "secluded"
    ],
    "coordinates": {
      "lat": 64.1466,
      "lng": -21.9426
    },
    "bedrooms": 6
  },
  {
    "property_id": "P0191",
    "location": "Santorini",
    "property_type": "cottage",
    "price_per_night": 254,
    "features": [
      "ev_charger",
      "ocean_view",
      "parking",
      "wifi"
    ],
    "tags": [
      "beachfront",
      "eco_friendly",
      "family_friendly"
    ],
    "coordinates": {
      "lat": 36.3932,
      "lng": 25.4615
    },
    "bedrooms": 4
  },
  {
    "property_id": "P0192",
    "location": "Park City",
    "property_type": "cottage",
    "price_per_night": 320,
    "features": [
      "bikes",
      "dishwasher",
      "fireplace",
      "hot_tub",
      "mountain_view",
      "wheelchair_accessible",
      "wifi"
    ],
    "tags": [
      "hiking",
      "secluded",
      "ski_in_out"
    ],
    "coordinates": {
      "lat": 40.6461,
      "lng": -111.498
    },
    "bedrooms": 4
  },
  {
    "property_id": "P0193",
    "location": "Charlottetown",
    "property_type": "condo",
    "price_per_night": 208,
    "features": [
      "bbq_grill",
      "gym",
      "kayaks",
      "parking",
      "pool",
      "wifi"
    ],
    "tags": [
      "budget",
      "eco_friendly",
      "family_friendly",
      "long_stay",
      "nightlife"
    ],
    "coordinates": {
      "lat": 46.2382,
      "lng": -63.1311
    },
    "bedrooms": 3
  },
  {
    "property_id": "P0194",
    "location": "Santa Fe",
    "property_type": "cabin",
    "price_per_night": 195,
    "features": [
      "ev_charger",
      "fireplace",
      "gym",
      "mountain_view",
      "pet_friendly",
      "sauna",
      "smart_tv",
      "washer_dryer",
      "wifi"
    ],
    "tags": [
      "eco_friendly",
      "nightlife",
      "secluded"
    ],
    "coordinates": {
      "lat": 35.687,
      "lng": -105.9378
    },
    "bedrooms": 3
  },
  {
    "property_id": "P0195",
    "location": "Mykonos",
    "property_type": "apartment",
    "price_per_night": 173,
    "features": [
      "game_room",
      "hot_tub",
      "ocean_view",
      "sauna",
      "washer_dryer",
      "wifi"
    ],
    "tags": [
      "beachfront",
      "nightlife"
    ],
    "coordinates": {
      "lat": 37.4467,
      "lng": 25.3289
    },
    "bedrooms": 3
  },
  {
    "property_id": "P0196",
    "location": "Winnipeg",
    "property_type": "condo",
    "price_per_night": 115,
    "features": [
      "bikes",
      "pool",
      "smart_tv",
      "wifi",
      "workspace"
    ],
    "tags": [
      "eco_friendly",
      "nightlife",
      "secluded"
    ],
    "coordinates": {
      "lat": 49.8951,
      "lng": -97.1384
    },
    "bedrooms": 3
  },
  {
    "property_id": "P0197",
    "location": "Lisbon",
    "property_type": "house",
    "price_per_night": 256,
    "features": [
      "bbq_grill",
      "dishwasher",
      "kayaks",
      "ocean_view",
      "parking",
      "washer_dryer",
      "wifi"
    ],
    "tags": [
      "beachfront",
      "new_listing"
    ],
    "coordinates": {
      "lat": 38.7223,
      "lng": -9.1393
    },
    "bedrooms": 5
  },
  {
    "property_id": "P0198",
    "location": "Halifax",
    "property_type": "chalet",
    "price_per_night": 206,
    "features": [
      "air_conditioning",
      "ev_charger",
      "fireplace",
      "sauna",
      "smart_tv",
      "wifi"
    ],
    "tags": [
      "long_stay"
    ],
    "coordinates": {
      "lat": 44.6488,
      "lng": -63.5752
    },
    "bedrooms": 3
  },
  {
    "property_id": "P0199",
    "location": "Cape Town",
    "property_type": "yurt",
    "price_per_night": 212,
    "features": [
      "air_conditioning",
      "bikes",
      "kayaks",
      "ocean_view",
      "parking",
      "washer_dryer",
      "wifi",
      "workspace"
    ],
    "tags": [
      "beachfront",
      "eco_friendly",
      "luxury",
      "secluded"
    ],
    "coordinates": {
      "lat": -33.9249,
      "lng": 18.4241
    },
    "bedrooms": 1
  },
  {
    "property_id": "P0200",
    "location": "Phoenix",
    "property_type": "cabin",
    "price_per_night": 196,
    "features": [
      "air_conditioning",
      "gym",
      "hot_tub",
      "kayaks",
      "pet_friendly",
      "sauna",
      "wifi"
    ],
    "tags": [
      "budget",
      "long_stay"
    ],
    "coordinates": {
      "lat": 33.4484,
      "lng": -112.074
    },
    "bedrooms": 1
  },
  {
    "property_id": "P0201",
    "location": "Lake Tahoe",
    "property_type": "townhouse",
    "price_per_night": 285,
    "features": [
      "bbq_grill",
      "fireplace",
      "hot_tub",
      "lake_view",
      "mountain_view",
      "pet_friendly",
      "pool",
      "wifi",
      "workspace"
    ],
    "tags": [
      "hiking",
      "lakeside",
      "romantic",
      "ski_in_out"
    ],
    "coordinates": {
      "lat": 39.0968,
      "lng": -120.0324
    },
    "bedrooms": 3
  },
  {
    "property_id": "P0202",
    "location": "Kingston",
    "property_type": "cottage",
    "price_per_night": 249,
    "features": [
      "dishwasher",
      "fireplace",
      "kayaks",
      "lake_view",
      "pool",
      "washer_dryer",
      "wifi"
    ],
    "tags": [
      "lakeside",
      "long_stay"
    ],
    "coordinates": {
      "lat": 44.2312,
      "lng": -76.486
    },
    "bedrooms": 2
  },
  {
    "property_id": "P0203",
    "location": "Sedona",
    "property_type": "house",
    "price_per_night": 125,
    "features": [
      "bbq_grill",
      "bikes",
      "fireplace",
      "game_room",
      "gym",
      "mountain_view",
      "parking",
      "washer_dryer",
      "wifi"
    ],
    "tags": [
      "budget",
      "long_stay"
    ],
    "coordinates": {
      "lat": 34.8697,
      "lng": -111.7609
    },
    "bedrooms": 3
  },
  {
    "property_id": "P0204",
    "location": "Honolulu",
    "property_type": "apartment",
    "price_per_night": 274,
    "features": [
      "air_conditioning",
      "dishwasher",
      "fireplace",
      "ocean_view",
      "wheelchair_accessible",
      "wifi"
    ],
    "tags": [
      "beachfront",
      "budget",
      "nightlife"
    ],
    "coordinates": {
      "lat": 21.3099,
      "lng": -157.8581
    },
    "bedrooms": 1
  },
  {
    "property_id": "P0205",
    "location": "Saskatoon",
    "property_type": "cabin",
    "price_per_night": 148,
    "features": [
      "pet_friendly",
      "pool",
      "washer_dryer",
      "wheelchair_accessible",
      "wifi"
    ],
    "tags": [
      "luxury",
      "nightlife"
    ],
    "coordinates": {
      "lat": 52.1332,
      "lng": -106.67
    },
    "bedrooms": 2
  },
  {
    "property_id": "P0206",
    "location": "Quebec City",
    "property_type": "cabin",
    "price_per_night": 233,
    "features": [
      "air_conditioning",
      "bikes",
      "dishwasher",
      "ev_charger",
      "hot_tub",
      "pet_friendly",
      "wifi"
    ],
    "tags": [
      "long_stay",
      "secluded",
      "superhost"
    ],
    "coordinates": {
      "lat": 46.8139,
      "lng": -71.208
    },
    "bedrooms": 2
  },
  {
    "property_id": "P0207",
    "location": "Santa Fe",
    "property_type": "house",
    "price_per_night": 180,
    "features": [
      "bbq_grill",
      "bikes",
      "ev_charger",
      "fireplace",
      "hot_tub",
      "mountain_view",
      "sauna",
      "washer_dryer",
      "wifi"
    ],
    "tags": [
      "city_center",
      "hiking",
      "romantic"
    ],
    "coordinates": {
      "lat": 35.687,
      "lng": -105.9378
    },
    "bedrooms": 5
  },
  {
    "property_id": "P0208",
    "location": "St. John's",
    "property_type": "townhouse",
    "price_per_night": 147,
    "features": [
      "bikes",
      "game_room",
      "hot_tub",
      "wifi"
    ],
    "tags": [
      "city_center",
      "eco_friendly",
      "nightlife"
    ],
    "coordinates": {
      "lat": 47.5615,
      "lng": -52.7126
    },
    "bedrooms": 4
  },
  {
    "property_id": "P0209",
    "location": "Whistler",
    "property_type": "condo",
    "price_per_night": 323,
    "features": [
      "air_conditioning",
      "fireplace",
      "hot_tub",
      "kayaks",
      "mountain_view",
      "sauna",
      "wheelchair_accessible",
      "wifi"
    ],
    "tags": [
      "hiking",
      "nightlife",
      "ski_in_out"
    ],
    "coordinates": {
      "lat": 50.1163,
      "lng": -122.9574
    },
    "bedrooms": 3
  },
  {
    "property_id": "P0210",
    "location": "Banff",
    "property_type": "bungalow",
    "price_per_night": 115,
    "features": [
      "air_conditioning",
      "dishwasher",
      "fireplace",
      "hot_tub",
      "kayaks",
      "mountain_view",
      "wifi"
    ],
    "tags": [
      "city_center",
      "hiking",
      "nightlife",
      "romantic",
      "ski_in_out"
    ],
    "coordinates": {
      "lat": 51.1784,
      "lng": -115.5708
    },
    "bedrooms": 3
  },
  {
    "property_id": "P0211",
    "location": "Park City",
    "property_type": "house",
    "price_per_night": 351,
    "features": [
      "bbq_grill",
      "bikes",
      "fireplace",
      "gym",
      "hot_tub",
      "mountain_view",
      "washer_dryer",
      "wifi",
      "workspace"
    ],
    "tags": [
      "city_center",
      "hiking",
      "secluded",
      "ski_in_out",
      "superhost"
    ],
    "coordinates": {
      "lat": 40.6461,
      "lng": -111.498
    },
    "bedrooms": 4
  },
  {
    "property_id": "P0212",
    "location": "Mykonos",
    "property_type": "villa",
    "price_per_night": 285,
    "features": [
      "bbq_grill",
      "bikes",
      "gym",
      "hot_tub",
      "ocean_view",
      "pool",
      "sauna",
      "washer_dryer",
      "wifi"
    ],
    "tags": [
      "beachfront",
      "secluded"
    ],
    "coordinates": {
      "lat": 37.4467,
      "lng": 25.3289
    },
    "bedrooms": 3
  },
  {
    "property_id": "P0213",
    "location": "Lake Tahoe",
    "property_type": "condo",
    "price_per_night": 223,
    "features": [
      "bbq_grill",
      "fireplace",
      "gym",
      "hot_tub",
      "lake_view",
      "mountain_view",
      "pool",
      "washer_dryer",
      "wifi"
    ],
    "tags": [
      "city_center",
      "hiking",
      "lakeside",
      "long_stay",
      "nightlife"
    ],
    "coordinates": {
      "lat": 39.0968,
      "lng": -120.0324
    },
    "bedrooms": 2
  },
  {
    "property_id": "P0214",
    "location": "Buenos Aires",
    "property_type": "cabin",
    "price_per_night": 122,
    "features": [
      "ev_charger",
      "ocean_view",
      "smart_tv",
      "wheelchair_accessible",
      "wifi"
    ],
    "tags": [
      "beachfront",
      "eco_friendly",
      "secluded"
    ],
    "coordinates": {
      "lat": -34.6037,
      "lng": -58.3816
    },
    "bedrooms": 2
  },
  {
    "property_id": "P0215",
    "location": "Melbourne",
    "property_type": "house",
    "price_per_night": 218,
    "features": [
      "air_conditioning",
      "bbq_grill",
      "fireplace",
      "kayaks",
      "ocean_view",
      "parking",
      "washer_dryer",
      "wifi"
    ],
    "tags": [
      "beachfront",
      "hiking"
    ],
    "coordinates": {
      "lat": -37.8136,
      "lng": 144.9631
    },
    "bedrooms": 4
  },
  {
    "property_id": "P0216",
    "location": "Toronto",
    "property_type": "townhouse",
    "price_per_night": 138,
    "features": [
      "bbq_grill",
      "kayaks",
      "lake_view",
      "wifi"
    ],
    "tags": [
      "beachfront",
      "city_center",
      "lakeside",
      "long_stay",
      "superhost"
    ],
    "coordinates": {
      "lat": 43.6532,
      "lng": -79.3832
    },
    "bedrooms": 3
  },
  {
    "property_id": "P0217",
    "location": "Miami",
    "property_type": "townhouse",
    "price_per_night": 149,
    "features": [
      "air_conditioning",
      "fireplace",
      "gym",
      "kayaks",
      "ocean_view",
      "parking",
      "wheelchair_accessible",
      "wifi",
      "workspace"
    ],
    "tags": [
      "beachfront",
      "family_friendly"
    ],
    "coordinates": {
      "lat": 25.7617,
      "lng": -80.1918
    },
    "bedrooms": 3
  },
  {
    "property_id": "P0218",
    "location": "Austin",
    "property_type": "cabin",
    "price_per_night": 167,
    "features": [
      "air_conditioning",
      "bbq_grill",
      "bikes",
      "ev_charger",
      "gym",
      "sauna",
      "smart_tv",
      "wheelchair_accessible",
      "wifi"
    ],
    "tags": [
      "family_friendly",
      "superhost"
    ],
    "coordinates": {
      "lat": 30.2672,
      "lng": -97.7431
    },
    "bedrooms": 2
  },
  {
    "property_id": "P0219",
    "location": "Blue Mountains",
    "property_type": "villa",
    "price_per_night": 300,
    "features": [
      "bbq_grill",
      "bikes",
      "fireplace",
      "gym",
      "lake_view",
      "mountain_view",
      "washer_dryer",
      "wheelchair_accessible",
      "wifi"
    ],
    "tags": [
      "hiking",
      "lakeside",
      "romantic",
      "secluded",
      "ski_in_out"
    ],
    "coordinates": {
      "lat": 44.5465,
      "lng": -80.382
    },
    "bedrooms": 4
  },
  {
    "property_id": "P0220",
    "location": "Boulder",
    "property_type": "condo",
    "price_per_night": 169,
    "features": [
      "bbq_grill",
      "dishwasher",
      "ev_charger",
      "fireplace",
      "game_room",
      "kayaks",
      "mountain_view",
      "smart_tv",
      "washer_dryer"
    ],
    "tags": [
      "nightlife",
      "superhost"
    ],
    "coordinates": {
      "lat": 40.01499,
      "lng": -105.2705
    },
    "bedrooms": 1
  },
  {
    "property_id": "P0221",
    "location": "Halifax",
    "property_type": "house",
    "price_per_night": 241,
    "features": [
      "air_conditioning",
      "bbq_grill",
      "dishwasher",
      "smart_tv",
      "washer_dryer",
      "wifi"
    ],
    "tags": [
      "budget",
      "hiking"
    ],
    "coordinates": {
      "lat": 44.6488,
      "lng": -63.5752
    },
    "bedrooms": 6
  },
  {
    "property_id": "P0222",
    "location": "Sedona",
    "property_type": "chalet",
    "price_per_night": 192,
    "features": [
      "dishwasher",
      "fireplace",
      "gym",
      "kayaks",
      "mountain_view",
      "parking",
      "wifi"
    ],
    "tags": [
      "family_friendly",
      "long_stay"
    ],
    "coordinates": {
      "lat": 34.8697,
      "lng": -111.7609
    },
    "bedrooms": 5
  },
  {
    "property_id": "P0223",
    "location": "Boulder",
    "property_type": "bungalow",
    "price_per_night": 221,
    "features": [
      "air_conditioning",
      "bbq_grill",
      "ev_charger",
      "fireplace",
      "kayaks",
      "mountain_view",
      "wifi"
    ],
    "tags": [
      "budget"
    ],
    "coordinates": {
      "lat": 40.01499,
      "lng": -105.2705
    },
    "bedrooms": 3
  },
  {
    "property_id": "P0224",
    "location": "Santa Fe",
    "property_type": "house",
    "price_per_night": 192,
    "features": [
      "bbq_grill",
      "bikes",
      "fireplace",
      "kayaks",
      "mountain_view",
      "pet_friendly",
      "washer_dryer",
      "wifi"
    ],
    "tags": [
      "secluded"
    ],
    "coordinates": {
      "lat": 35.687,
      "lng": -105.9378
    },
    "bedrooms": 4
  },
  {
    "property_id": "P0225",
    "location": "Seattle",
    "property_type": "apartment",
    "price_per_night": 222,
    "features": [
      "bbq_grill",
      "bikes",
      "ev_charger",
      "kayaks",
      "ocean_view",
      "smart_tv",
      "wifi"
    ],
    "tags": [
      "beachfront",
      "city_center",
      "long_stay",
      "nightlife"
    ],
    "coordinates": {
      "lat": 47.6062,
      "lng": -122.3321
    },
    "bedrooms": 2
  },